{
  "hojin-infos": [
    {
      "corporate_number": "1000020132012",
      "name": "八王子市",
      "address": "東京都八王子市元本郷町３丁目２４－１",
      "prefecture": "東京都八王子市元本郷町３丁目２４－１",
      "certification": [
        {
          "certification_name": "気象庁長官表彰",
          "certified_date": "2020-06-01"
        }
      ],
      "lat": 35.664808,
      "lng": 139.315964
    },
    {
      "corporate_number": "1010001000006",
      "name": "五洋建設株式会社",
      "address": "東京都文京区後楽２丁目２番８号",
      "prefecture": "東京都文京区後楽２丁目２番８号",
      "certification": [
        {
          "certification_name": "えるぼし－認定",
          "certified_date": ""
        },
        {
          "certification_name": "熊本防衛支局優秀工事顕彰",
          "certified_date": "2024-07-25"
        },
        {
          "certification_name": "優秀工事・優秀工事技術者顕彰",
          "certified_date": "2024-07-04"
        },
        {
          "certification_name": "優秀工事顕彰",
          "certified_date": "2023-07-13"
        },
        {
          "certification_name": "近畿中部防衛局　優秀工事顕彰",
          "certified_date": "2023-07-03"
        },
        {
          "certification_name": "特別優秀工事等顕彰",
          "certified_date": "2023-06-29"
        }
      ],
      "lat": 35.703670142,
      "lng": 139.744941572
    },
    {
      "corporate_number": "1010001000220",
      "name": "株式会社アール・ピー・アイ",
      "address": "東京都千代田区神田神保町２丁目３８番いちご九段ビル３階",
      "prefecture": "東京都千代田区神田神保町２丁目３８番いちご九段ビル３階",
      "certification": [
        {
          "certification_name": "えるぼし－認定",
          "certified_date": ""
        }
      ],
      "lat": 35.696637,
      "lng": 139.756454
    },
    {
      "corporate_number": "1010001001805",
      "name": "鹿島道路株式会社",
      "address": "東京都文京区後楽１丁目７番２７号",
      "prefecture": "東京都文京区後楽１丁目７番２７号",
      "certification": [
        {
          "certification_name": "次世代育成支援対策推進法に基づく「くるみん」認定",
          "certified_date": ""
        }
      ],
      "lat": 35.705592214,
      "lng": 139.747640414
    },
    {
      "corporate_number": "1010001001854",
      "name": "株式会社片平新日本技研",
      "address": "東京都文京区小石川２丁目２２番２号",
      "prefecture": "東京都文京区小石川２丁目２２番２号",
      "certification": [
        {
          "certification_name": "えるぼし－認定",
          "certified_date": ""
        },
        {
          "certification_name": "次世代育成支援対策推進法に基づく「くるみん」認定",
          "certified_date": ""
        }
      ],
      "lat": 35.710391131,
      "lng": 139.75160455
    },
    {
      "corporate_number": "1010001008651",
      "name": "ウシオ電機株式会社",
      "address": "東京都港区三田３丁目５番１９号住友不動産東京三田ガーデンタワー３１階",
      "prefecture": "東京都港区三田３丁目５番１９号住友不動産東京三田ガーデンタワー３１階",
      "certification": [
        {
          "certification_name": "次世代育成支援対策推進法に基づく「くるみん」認定",
          "certified_date": ""
        }
      ],
      "lat": 35.644006,
      "lng": 139.742887
    },
    {
      "corporate_number": "1010001008692",
      "name": "住友商事株式会社",
      "address": "東京都千代田区大手町２丁目３番２号",
      "prefecture": "東京都千代田区大手町２丁目３番２号",
      "certification": [
        {
          "certification_name": "次世代育成支援対策推進法に基づく「くるみん」認定",
          "certified_date": ""
        },
        {
          "certification_name": "えるぼし－認定",
          "certified_date": ""
        },
        {
          "certification_name": "テレワーク推進企業等厚生労働大臣表彰－表彰（優秀賞）",
          "certified_date": ""
        },
        {
          "certification_name": "次世代育成支援対策推進法に基づく「プラチナくるみん」特例認定",
          "certified_date": ""
        },
        {
          "certification_name": "テレワーク推進企業等厚生労働大臣表彰",
          "certified_date": "2020-11-30"
        }
      ],
      "lat": 35.686301,
      "lng": 139.768087
    },
    {
      "corporate_number": "1010001008734",
      "name": "日産化学株式会社",
      "address": "東京都中央区日本橋２丁目５番１号",
      "prefecture": "東京都中央区日本橋２丁目５番１号",
      "certification": [
        {
          "certification_name": "次世代育成支援対策推進法に基づく「くるみん」認定",
          "certified_date": ""
        }
      ],
      "lat": 35.681750132,
      "lng": 139.773472084
    },
    {
      "corporate_number": "1010001008742",
      "name": "ピーエス・コンストラクション株式会社",
      "address": "東京都港区東新橋１丁目９番１号",
      "prefecture": "東京都港区東新橋１丁目９番１号",
      "certification": [
        {
          "certification_name": "次世代育成支援対策推進法に基づく「くるみん」認定",
          "certified_date": ""
        }
      ],
      "lat": 35.663118,
      "lng": 139.760581
    },
    {
      "corporate_number": "1010001008750",
      "name": "ＤＯＷＡホールディングス株式会社",
      "address": "東京都千代田区外神田４丁目１４番１号",
      "prefecture": "東京都千代田区外神田４丁目１４番１号",
      "certification": [
        {
          "certification_name": "えるぼし－認定",
          "certified_date": ""
        },
        {
          "certification_name": "次世代育成支援対策推進法に基づく「くるみん」認定",
          "certified_date": ""
        },
        {
          "certification_name": "なでしこ銘柄－認定",
          "certified_date": ""
        }
      ],
      "lat": 35.699702375,
      "lng": 139.772054853
    },
    {
      "corporate_number": "1010001008767",
      "name": "三井物産株式会社",
      "address": "東京都千代田区大手町１丁目２番１号",
      "prefecture": "東京都千代田区大手町１丁目２番１号",
      "certification": [
        {
          "certification_name": "なでしこ銘柄－認定",
          "certified_date": ""
        },
        {
          "certification_name": "えるぼし－認定",
          "certified_date": ""
        },
        {
          "certification_name": "次世代育成支援対策推進法に基づく「くるみん」認定",
          "certified_date": ""
        },
        {
          "certification_name": "次世代育成支援対策推進法に基づく「プラチナくるみん」特例認定",
          "certified_date": ""
        },
        {
          "certification_name": "令和元年度「青少年の体験活動推進企業表彰」",
          "certified_date": "2020-02-27"
        },
        {
          "certification_name": "攻めのＩＴ経営銘柄",
          "certified_date": "2019-04-23"
        }
      ],
      "lat": 35.688069,
      "lng": 139.763929
    },
    {
      "corporate_number": "1010001008791",
      "name": "株式会社ミクニ",
      "address": "東京都千代田区外神田６丁目１３番１１号",
      "prefecture": "東京都千代田区外神田６丁目１３番１１号",
      "certification": [
        {
          "certification_name": "えるぼし－認定",
          "certified_date": ""
        },
        {
          "certification_name": "次世代育成支援対策推進法に基づく「くるみん」認定",
          "certified_date": ""
        }
      ],
      "lat": 35.703088239,
      "lng": 139.77086053900004
    },
    {
      "corporate_number": "1010001008825",
      "name": "東京電力ホールディングス株式会社",
      "address": "東京都千代田区内幸町１丁目１番３号",
      "prefecture": "東京都千代田区内幸町１丁目１番３号",
      "certification": [
        {
          "certification_name": "次世代育成支援対策推進法に基づく「くるみん」認定",
          "certified_date": ""
        },
        {
          "certification_name": "えるぼし－認定",
          "certified_date": ""
        }
      ],
      "lat": 35.67083900000001,
      "lng": 139.758119
    },
    {
      "corporate_number": "1010001008833",
      "name": "日本曹達株式会社",
      "address": "東京都千代田区丸の内２丁目７番２号",
      "prefecture": "東京都千代田区丸の内２丁目７番２号",
      "certification": [
        {
          "certification_name": "えるぼし－認定",
          "certified_date": ""
        },
        {
          "certification_name": "次世代育成支援対策推進法に基づく「くるみん」認定",
          "certified_date": ""
        }
      ],
      "lat": 35.680022,
      "lng": 139.763447
    },
    {
      "corporate_number": "1010001012059",
      "name": "住友商事フィナンシャルマネジメント株式会社",
      "address": "東京都千代田区大手町２丁目３番２号",
      "prefecture": "東京都千代田区大手町２丁目３番２号",
      "certification": [
        {
          "certification_name": "次世代育成支援対策推進法に基づく「くるみん」認定",
          "certified_date": ""
        }
      ],
      "lat": 35.686301,
      "lng": 139.768087
    },
    {
      "corporate_number": "1010001012372",
      "name": "ＮＴＴ都市開発株式会社",
      "address": "東京都千代田区外神田４丁目１４番１号",
      "prefecture": "東京都千代田区外神田４丁目１４番１号",
      "certification": [
        {
          "certification_name": "次世代育成支援対策推進法に基づく「くるみん」認定",
          "certified_date": ""
        },
        {
          "certification_name": "次世代育成支援対策推進法に基づく「プラチナくるみん」特例認定",
          "certified_date": ""
        },
        {
          "certification_name": "なでしこ銘柄－認定",
          "certified_date": ""
        }
      ],
      "lat": 35.699702375,
      "lng": 139.772054853
    },
    {
      "corporate_number": "1010001012439",
      "name": "株式会社エフエム東京",
      "address": "東京都千代田区麹町１丁目７番地",
      "prefecture": "東京都千代田区麹町１丁目７番地",
      "certification": [
        {
          "certification_name": "次世代育成支援対策推進法に基づく「くるみん」認定",
          "certified_date": ""
        }
      ],
      "lat": 35.684447,
      "lng": 139.742919
    },
    {
      "corporate_number": "1010001012983",
      "name": "株式会社大塚商会",
      "address": "東京都千代田区飯田橋２丁目１８番４号",
      "prefecture": "東京都千代田区飯田橋２丁目１８番４号",
      "certification": [
        {
          "certification_name": "次世代育成支援対策推進法に基づく「くるみん」認定",
          "certified_date": ""
        },
        {
          "certification_name": "えるぼし－認定",
          "certified_date": ""
        }
      ],
      "lat": 35.698616381,
      "lng": 139.751524428
    },
    {
      "corporate_number": "1010001015334",
      "name": "株式会社グロービス",
      "address": "東京都千代田区二番町５番地１",
      "prefecture": "東京都千代田区二番町５番地１",
      "certification": [
        {
          "certification_name": "次世代育成支援対策推進法に基づく「くるみん」認定",
          "certified_date": ""
        }
      ],
      "lat": 35.686185,
      "lng": 139.736126
    },
    {
      "corporate_number": "1010001015490",
      "name": "株式会社現代文化研究所",
      "address": "東京都千代田区九段南２丁目３番１８号",
      "prefecture": "東京都千代田区九段南２丁目３番１８号",
      "certification": [
        {
          "certification_name": "えるぼし－認定",
          "certified_date": ""
        }
      ],
      "lat": 35.693908108,
      "lng": 139.74552405
    },
    {
      "corporate_number": "1010001016860",
      "name": "株式会社ニッスイ",
      "address": "東京都港区西新橋１丁目３番１号",
      "prefecture": "東京都港区西新橋１丁目３番１号",
      "certification": [
        {
          "certification_name": "次世代育成支援対策推進法に基づく「くるみん」認定",
          "certified_date": ""
        },
        {
          "certification_name": "健康経営銘柄－認定",
          "certified_date": ""
        },
        {
          "certification_name": "第４０回食品産業優良企業等表彰",
          "certified_date": "2019-03-11"
        }
      ],
      "lat": 35.668733,
      "lng": 139.753194
    },
    {
      "corporate_number": "1010001019483",
      "name": "株式会社ジェイエイシーリクルートメント",
      "address": "東京都千代田区神田神保町１丁目１０５番地神保町三井ビルディング１４階",
      "prefecture": "東京都千代田区神田神保町１丁目１０５番地神保町三井ビルディング１４階",
      "certification": [
        {
          "certification_name": "えるぼし－認定",
          "certified_date": ""
        }
      ],
      "lat": 35.696491,
      "lng": 139.759073
    },
    {
      "corporate_number": "1010001020788",
      "name": "株式会社世界文化ホールディングス",
      "address": "東京都千代田区九段北４丁目２番２９号",
      "prefecture": "東京都千代田区九段北４丁目２番２９号",
      "certification": [
        {
          "certification_name": "えるぼし－認定",
          "certified_date": ""
        },
        {
          "certification_name": "次世代育成支援対策推進法に基づく「くるみん」認定",
          "certified_date": ""
        },
        {
          "certification_name": "次世代育成支援対策推進法に基づく「プラチナくるみん」特例認定",
          "certified_date": ""
        }
      ],
      "lat": 35.692455547,
      "lng": 139.738046894
    },
    {
      "corporate_number": "1010001021927",
      "name": "大鵬薬品工業株式会社",
      "address": "東京都千代田区神田錦町１丁目２７番地",
      "prefecture": "東京都千代田区神田錦町１丁目２７番地",
      "certification": [
        {
          "certification_name": "次世代育成支援対策推進法に基づく「くるみん」認定",
          "certified_date": ""
        },
        {
          "certification_name": "次世代育成支援対策推進法に基づく「プラチナくるみん」特例認定",
          "certified_date": ""
        },
        {
          "certification_name": "テレワーク推進企業等厚生労働大臣表彰－表彰（特別奨励賞）",
          "certified_date": ""
        },
        {
          "certification_name": "テレワーク推進企業等厚生労働大臣表彰（輝くテレワーク賞）",
          "certified_date": "2023-11-27"
        }
      ],
      "lat": 35.691744,
      "lng": 139.764155
    },
    {
      "corporate_number": "1010001022149",
      "name": "三菱ＵＦＪファクター株式会社",
      "address": "東京都千代田区神田淡路町２丁目１０１番地",
      "prefecture": "東京都千代田区神田淡路町２丁目１０１番地",
      "certification": [
        {
          "certification_name": "次世代育成支援対策推進法に基づく「くるみん」認定",
          "certified_date": ""
        },
        {
          "certification_name": "次世代育成支援対策推進法に基づく「プラチナくるみん」特例認定",
          "certified_date": ""
        },
        {
          "certification_name": "えるぼし－認定",
          "certified_date": ""
        }
      ],
      "lat": 35.697519,
      "lng": 139.767838
    },
    {
      "corporate_number": "1010001024087",
      "name": "東光電気工事株式会社",
      "address": "東京都千代田区西神田１丁目４番５号",
      "prefecture": "東京都千代田区西神田１丁目４番５号",
      "certification": [
        {
          "certification_name": "えるぼし－認定",
          "certified_date": ""
        },
        {
          "certification_name": "優秀工事等顕彰",
          "certified_date": "2024-07-30"
        },
        {
          "certification_name": "令和５年度優良工事表彰",
          "certified_date": "2023-07-18"
        },
        {
          "certification_name": "特別優秀工事等顕彰",
          "certified_date": "2023-06-29"
        },
        {
          "certification_name": "優秀工事顕彰",
          "certified_date": "2020-07-01"
        }
      ],
      "lat": 35.699575572,
      "lng": 139.756965986
    },
    {
      "corporate_number": "1010001026918",
      "name": "株式会社テレコムスクエア",
      "address": "東京都千代田区三番町８番地１",
      "prefecture": "東京都千代田区三番町８番地１",
      "certification": [
        {
          "certification_name": "えるぼし－認定",
          "certified_date": ""
        }
      ],
      "lat": 35.690557,
      "lng": 139.743591
    },
    {
      "corporate_number": "1010001031728",
      "name": "株式会社読売アルスＡ",
      "address": "東京都千代田区富士見２丁目１番１２号",
      "prefecture": "東京都千代田区富士見２丁目１番１２号",
      "certification": [
        {
          "certification_name": "えるぼし－認定",
          "certified_date": ""
        },
        {
          "certification_name": "次世代育成支援対策推進法に基づく「くるみん」認定",
          "certified_date": ""
        },
        {
          "certification_name": "次世代育成支援対策推進法に基づく「プラチナくるみん」特例認定",
          "certified_date": ""
        }
      ],
      "lat": 35.699577461,
      "lng": 139.746394408
    },
    {
      "corporate_number": "1010001033609",
      "name": "ＣＨＥＭＩＰＡＺ株式会社",
      "address": "東京都中央区日本橋本町３丁目３番６号",
      "prefecture": "東京都中央区日本橋本町３丁目３番６号",
      "certification": [
        {
          "certification_name": "えるぼし－認定",
          "certified_date": ""
        }
      ],
      "lat": 35.68888495400001,
      "lng": 139.774232476
    },
    {
      "corporate_number": "1010001034202",
      "name": "東海東京フィナンシャル・ホールディングス株式会社",
      "address": "東京都中央区日本橋２丁目５番１号",
      "prefecture": "東京都中央区日本橋２丁目５番１号",
      "certification": [
        {
          "certification_name": "グッドキャリア企業アワード（大賞（厚生労働大臣表彰））",
          "certified_date": ""
        },
        {
          "certification_name": "えるぼし－認定",
          "certified_date": ""
        },
        {
          "certification_name": "グッドキャリア企業アワード－表彰（大賞（厚生労働大臣表彰））",
          "certified_date": ""
        }
      ],
      "lat": 35.681750132,
      "lng": 139.773472084
    },
    {
      "corporate_number": "1010001034565",
      "name": "株式会社ぐるなび",
      "address": "東京都千代田区有楽町１丁目１番２号",
      "prefecture": "東京都千代田区有楽町１丁目１番２号",
      "certification": [
        {
          "certification_name": "えるぼし－認定",
          "certified_date": ""
        },
        {
          "certification_name": "次世代育成支援対策推進法に基づく「くるみん」認定",
          "certified_date": ""
        }
      ],
      "lat": 35.674483,
      "lng": 139.76055
    },
    {
      "corporate_number": "1010001034730",
      "name": "株式会社内田洋行",
      "address": "東京都中央区新川２丁目４番７号",
      "prefecture": "東京都中央区新川２丁目４番７号",
      "certification": [
        {
          "certification_name": "えるぼし－認定",
          "certified_date": ""
        },
        {
          "certification_name": "次世代育成支援対策推進法に基づく「くるみん」認定",
          "certified_date": ""
        }
      ],
      "lat": 35.676057664,
      "lng": 139.780018725
    },
    {
      "corporate_number": "1010001034813",
      "name": "株式会社資生堂",
      "address": "東京都中央区銀座７丁目５番５号",
      "prefecture": "東京都中央区銀座７丁目５番５号",
      "certification": [
        {
          "certification_name": "次世代育成支援対策推進法に基づく「くるみん」認定",
          "certified_date": ""
        },
        {
          "certification_name": "なでしこ銘柄－認定",
          "certified_date": ""
        },
        {
          "certification_name": "障害者雇用優良事業所の大臣表彰－表彰",
          "certified_date": ""
        }
      ],
      "lat": 35.669961959,
      "lng": 139.76159672
    },
    {
      "corporate_number": "1010001034854",
      "name": "東邦テナックス株式会社",
      "address": "東京都千代田区霞が関３丁目２番１号",
      "prefecture": "東京都千代田区霞が関３丁目２番１号",
      "certification": [
        {
          "certification_name": "次世代育成支援対策推進法に基づく「くるみん」認定",
          "certified_date": ""
        }
      ],
      "lat": 35.671825,
      "lng": 139.746988
    },
    {
      "corporate_number": "1010001034887",
      "name": "日清オイリオグループ株式会社",
      "address": "東京都中央区新川１丁目２３番１号",
      "prefecture": "東京都中央区新川１丁目２３番１号",
      "certification": [
        {
          "certification_name": "えるぼし－認定",
          "certified_date": ""
        },
        {
          "certification_name": "次世代育成支援対策推進法に基づく「くるみん」認定",
          "certified_date": ""
        },
        {
          "certification_name": "次世代育成支援対策推進法に基づく「プラチナくるみん」特例認定",
          "certified_date": ""
        },
        {
          "certification_name": "グリーン物流パートナーシップ優良事業者表彰",
          "certified_date": "2016-12-14"
        }
      ],
      "lat": 35.677284,
      "lng": 139.784409246
    },
    {
      "corporate_number": "1010001034945",
      "name": "株式会社松屋",
      "address": "東京都中央区銀座３丁目６番１号",
      "prefecture": "東京都中央区銀座３丁目６番１号",
      "certification": [
        {
          "certification_name": "次世代育成支援対策推進法に基づく「くるみん」認定",
          "certified_date": ""
        }
      ],
      "lat": 35.672779941,
      "lng": 139.766976231
    },
    {
      "corporate_number": "1010001034978",
      "name": "日本紙パルプ商事株式会社",
      "address": "東京都中央区勝どき３丁目１２番１号フォアフロントタワー",
      "prefecture": "東京都中央区勝どき３丁目１２番１号フォアフロントタワー",
      "certification": [
        {
          "certification_name": "次世代育成支援対策推進法に基づく「くるみん」認定",
          "certified_date": ""
        }
      ],
      "lat": 35.659124178,
      "lng": 139.774234179
    },
    {
      "corporate_number": "1010001035051",
      "name": "朝日新聞総合サービス株式会社",
      "address": "東京都中央区築地５丁目３番２号",
      "prefecture": "東京都中央区築地５丁目３番２号",
      "certification": [
        {
          "certification_name": "えるぼし－認定",
          "certified_date": ""
        },
        {
          "certification_name": "次世代育成支援対策推進法に基づく「くるみん」認定",
          "certified_date": ""
        }
      ],
      "lat": 35.665219569,
      "lng": 139.766245169
    },
    {
      "corporate_number": "1010001035258",
      "name": "株式会社アイガー",
      "address": "東京都千代田区丸の内１丁目９番１号グラントウキョウノースタワー３６階",
      "prefecture": "東京都千代田区丸の内１丁目９番１号グラントウキョウノースタワー３６階",
      "certification": [
        {
          "certification_name": "えるぼし－認定",
          "certified_date": ""
        }
      ],
      "lat": 35.68156,
      "lng": 139.767201
    },
    {
      "corporate_number": "1010001046305",
      "name": "しんきん証券株式会社",
      "address": "東京都中央区京橋３丁目８番１号",
      "prefecture": "東京都中央区京橋３丁目８番１号",
      "certification": [
        {
          "certification_name": "えるぼし－認定",
          "certified_date": ""
        }
      ],
      "lat": 35.675464027,
      "lng": 139.771165696
    },
    {
      "corporate_number": "1010001047518",
      "name": "三井住友トラストクラブ株式会社",
      "address": "東京都中央区晴海１丁目８番１０号トリトンスクエアＸ棟",
      "prefecture": "東京都中央区晴海１丁目８番１０号トリトンスクエアＸ棟",
      "certification": [
        {
          "certification_name": "えるぼし－認定",
          "certified_date": ""
        }
      ],
      "lat": 35.659523,
      "lng": 139.786164
    },
    {
      "corporate_number": "1010001054927",
      "name": "株式会社廣瀬商会",
      "address": "東京都中央区日本橋３丁目１番１７号",
      "prefecture": "東京都中央区日本橋３丁目１番１７号",
      "certification": [
        {
          "certification_name": "えるぼし－認定",
          "certified_date": ""
        }
      ],
      "lat": 35.6808599,
      "lng": 139.771234551
    },
    {
      "corporate_number": "1010001055066",
      "name": "ヒゲタ醤油株式会社",
      "address": "東京都中央区日本橋小網町２番３号",
      "prefecture": "東京都中央区日本橋小網町２番３号",
      "certification": [
        {
          "certification_name": "障害者雇用優良事業所の大臣表彰－表彰",
          "certified_date": ""
        },
        {
          "certification_name": "次世代育成支援対策推進法に基づく「くるみん」認定",
          "certified_date": ""
        },
        {
          "certification_name": "次世代育成支援対策推進法に基づく「プラチナくるみん」特例認定",
          "certified_date": ""
        }
      ],
      "lat": 35.680557715,
      "lng": 139.782648374
    },
    {
      "corporate_number": "1010001057418",
      "name": "株式会社証券ジャパン",
      "address": "東京都中央区日本橋茅場町１丁目２番１８号",
      "prefecture": "東京都中央区日本橋茅場町１丁目２番１８号",
      "certification": [
        {
          "certification_name": "次世代育成支援対策推進法に基づく「くるみん」認定",
          "certified_date": ""
        }
      ],
      "lat": 35.681828952,
      "lng": 139.779237205
    },
    {
      "corporate_number": "1010001060371",
      "name": "株式会社菱晃",
      "address": "東京都中央区日本橋小網町１４番１号",
      "prefecture": "東京都中央区日本橋小網町１４番１号",
      "certification": [
        {
          "certification_name": "次世代育成支援対策推進法に基づく「くるみん」認定",
          "certified_date": ""
        }
      ],
      "lat": 35.683707553,
      "lng": 139.780601374
    },
    {
      "corporate_number": "1010001061452",
      "name": "東京短資株式会社",
      "address": "東京都中央区日本橋室町４丁目４番１０号",
      "prefecture": "東京都中央区日本橋室町４丁目４番１０号",
      "certification": [
        {
          "certification_name": "次世代育成支援対策推進法に基づく「くるみん」認定",
          "certified_date": ""
        }
      ],
      "lat": 35.688860438,
      "lng": 139.773316082
    },
    {
      "corporate_number": "1010001061972",
      "name": "株式会社アヴァンティスタッフ",
      "address": "東京都中央区日本橋兜町６番７号",
      "prefecture": "東京都中央区日本橋兜町６番７号",
      "certification": [
        {
          "certification_name": "えるぼし－認定",
          "certified_date": ""
        }
      ],
      "lat": 35.681855424,
      "lng": 139.779004783
    },
    {
      "corporate_number": "1010001065445",
      "name": "株式会社第一ビルデイング",
      "address": "東京都品川区大崎１丁目２番２号",
      "prefecture": "東京都品川区大崎１丁目２番２号",
      "certification": [
        {
          "certification_name": "えるぼし－認定",
          "certified_date": ""
        },
        {
          "certification_name": "次世代育成支援対策推進法に基づく「くるみん」認定",
          "certified_date": ""
        }
      ],
      "lat": 35.62180486,
      "lng": 139.728372
    },
    {
      "corporate_number": "1010001066022",
      "name": "株式会社ジェイック",
      "address": "東京都千代田区神田神保町１丁目１０１番神保町１０１ビル７階",
      "prefecture": "東京都千代田区神田神保町１丁目１０１番神保町１０１ビル７階",
      "certification": [
        {
          "certification_name": "えるぼし－認定",
          "certified_date": ""
        }
      ],
      "lat": 35.696491,
      "lng": 139.759073
    },
    {
      "corporate_number": "1010001067359",
      "name": "株式会社パソナ",
      "address": "東京都千代田区丸の内１丁目５番１号",
      "prefecture": "東京都千代田区丸の内１丁目５番１号",
      "certification": [
        {
          "certification_name": "えるぼし－認定",
          "certified_date": ""
        },
        {
          "certification_name": "次世代育成支援対策推進法に基づく「くるみん」認定",
          "certified_date": ""
        }
      ],
      "lat": 35.68156,
      "lng": 139.767201
    },
    {
      "corporate_number": "1010001067912",
      "name": "株式会社ＮＴＴドコモ",
      "address": "東京都千代田区永田町２丁目１１番１号",
      "prefecture": "東京都千代田区永田町２丁目１１番１号",
      "certification": [
        {
          "certification_name": "えるぼし－認定",
          "certified_date": ""
        },
        {
          "certification_name": "次世代育成支援対策推進法に基づく「くるみん」認定",
          "certified_date": ""
        },
        {
          "certification_name": "次世代育成支援対策推進法に基づく「プラチナくるみん」特例認定",
          "certified_date": ""
        },
        {
          "certification_name": "なでしこ銘柄－認定",
          "certified_date": ""
        }
      ],
      "lat": 35.67505,
      "lng": 139.741228
    },
    {
      "corporate_number": "1010001070040",
      "name": "三和エンジニアリング株式会社",
      "address": "東京都千代田区神田佐久間町２丁目１９番",
      "prefecture": "東京都千代田区神田佐久間町２丁目１９番",
      "certification": [
        {
          "certification_name": "えるぼし－認定",
          "certified_date": ""
        }
      ],
      "lat": 35.698009,
      "lng": 139.776368
    },
    {
      "corporate_number": "1010001074512",
      "name": "商船三井テクノトレード株式会社",
      "address": "東京都千代田区神田錦町２丁目２番地１",
      "prefecture": "東京都千代田区神田錦町２丁目２番地１",
      "certification": [
        {
          "certification_name": "船員安全・労働環境取組大賞",
          "certified_date": "2022-09-15"
        }
      ],
      "lat": 35.691985,
      "lng": 139.76304600000003
    },
    {
      "corporate_number": "1010001075808",
      "name": "株式会社ＫＰＭＧ　ＦＡＳ",
      "address": "東京都千代田区大手町１丁目９番５号",
      "prefecture": "東京都千代田区大手町１丁目９番５号",
      "certification": [
        {
          "certification_name": "次世代育成支援対策推進法に基づく「くるみん」認定",
          "certified_date": ""
        }
      ],
      "lat": 35.688069,
      "lng": 139.763929
    },
    {
      "corporate_number": "1010001081896",
      "name": "株式会社アイ・ラーニング",
      "address": "東京都中央区日本橋箱崎町４番３号",
      "prefecture": "東京都中央区日本橋箱崎町４番３号",
      "certification": [
        {
          "certification_name": "えるぼし－認定",
          "certified_date": ""
        }
      ],
      "lat": 35.679857412,
      "lng": 139.783405294
    },
    {
      "corporate_number": "1010001086672",
      "name": "テプコ・ソリューション・アドバンス株式会社",
      "address": "東京都港区芝３丁目２番１８号",
      "prefecture": "東京都港区芝３丁目２番１８号",
      "certification": [
        {
          "certification_name": "えるぼし－認定",
          "certified_date": ""
        }
      ],
      "lat": 35.65233,
      "lng": 139.747302
    },
    {
      "corporate_number": "1010001088181",
      "name": "株式会社セブン－イレブン・ジャパン",
      "address": "東京都千代田区二番町８番地８",
      "prefecture": "東京都千代田区二番町８番地８",
      "certification": [
        {
          "certification_name": "えるぼし－認定",
          "certified_date": ""
        },
        {
          "certification_name": "次世代育成支援対策推進法に基づく「くるみん」認定",
          "certified_date": ""
        },
        {
          "certification_name": "令和６年度食品ロス削減推進表彰",
          "certified_date": "2024-09-27"
        }
      ],
      "lat": 35.686185,
      "lng": 139.736126
    },
    {
      "corporate_number": "1010001088264",
      "name": "セントラルコンサルタント株式会社",
      "address": "東京都中央区晴海２丁目５番２４号",
      "prefecture": "東京都中央区晴海２丁目５番２４号",
      "certification": [
        {
          "certification_name": "次世代育成支援対策推進法に基づく「くるみん」認定",
          "certified_date": ""
        }
      ],
      "lat": 35.655574161,
      "lng": 139.782632372
    },
    {
      "corporate_number": "1010001089262",
      "name": "株式会社プレステージ・インターナショナル",
      "address": "東京都千代田区麹町２丁目４番地１",
      "prefecture": "東京都千代田区麹町２丁目４番地１",
      "certification": [
        {
          "certification_name": "えるぼし－認定",
          "certified_date": ""
        },
        {
          "certification_name": "次世代育成支援対策推進法に基づく「くるみん」認定",
          "certified_date": ""
        }
      ],
      "lat": 35.684487,
      "lng": 139.740505
    },
    {
      "corporate_number": "1010001090468",
      "name": "田辺薬局株式会社",
      "address": "東京都中央区築地４丁目３番８号",
      "prefecture": "東京都中央区築地４丁目３番８号",
      "certification": [
        {
          "certification_name": "えるぼし－認定",
          "certified_date": ""
        }
      ],
      "lat": 35.666637356,
      "lng": 139.768399165
    },
    {
      "corporate_number": "1010001090889",
      "name": "ＥＮＥＯＳグローブ株式会社",
      "address": "東京都千代田区永田町２丁目１１番１号",
      "prefecture": "東京都千代田区永田町２丁目１１番１号",
      "certification": [
        {
          "certification_name": "次世代育成支援対策推進法に基づく「くるみん」認定",
          "certified_date": ""
        }
      ],
      "lat": 35.67505,
      "lng": 139.741228
    },
    {
      "corporate_number": "1010001091383",
      "name": "日本ジェネリック株式会社",
      "address": "東京都港区芝５丁目３３番１１号",
      "prefecture": "東京都港区芝５丁目３３番１１号",
      "certification": [
        {
          "certification_name": "次世代育成支援対策推進法に基づく「くるみん」認定",
          "certified_date": ""
        }
      ],
      "lat": 35.647133,
      "lng": 139.746672
    },
    {
      "corporate_number": "1010001091664",
      "name": "三菱地所コミュニティ株式会社",
      "address": "東京都千代田区三番町６番地１",
      "prefecture": "東京都千代田区三番町６番地１",
      "certification": [
        {
          "certification_name": "次世代育成支援対策推進法に基づく「くるみん」認定",
          "certified_date": ""
        }
      ],
      "lat": 35.690557,
      "lng": 139.743591
    },
    {
      "corporate_number": "1010001091937",
      "name": "株式会社山田守建築事務所",
      "address": "東京都千代田区岩本町３丁目２番１号",
      "prefecture": "東京都千代田区岩本町３丁目２番１号",
      "certification": [
        {
          "certification_name": "令和４年度優良工事等表彰",
          "certified_date": "2022-07-19"
        }
      ],
      "lat": 35.694839683,
      "lng": 139.775454006
    },
    {
      "corporate_number": "1010001093768",
      "name": "高島屋スペースクリエイツ株式会社",
      "address": "東京都中央区日本橋２丁目１２番１０号",
      "prefecture": "東京都中央区日本橋２丁目１２番１０号",
      "certification": [
        {
          "certification_name": "次世代育成支援対策推進法に基づく「くるみん」認定",
          "certified_date": ""
        }
      ],
      "lat": 35.679774567,
      "lng": 139.77510917
    },
    {
      "corporate_number": "1010001094543",
      "name": "株式会社ホスピタリティオペレーションズ",
      "address": "東京都千代田区神田錦町２丁目５番１６号",
      "prefecture": "東京都千代田区神田錦町２丁目５番１６号",
      "certification": [
        {
          "certification_name": "えるぼし－認定",
          "certified_date": ""
        }
      ],
      "lat": 35.691985,
      "lng": 139.76304600000003
    },
    {
      "corporate_number": "1010001095203",
      "name": "株式会社セブン＆アイ・ホールディングス",
      "address": "東京都千代田区二番町８番地８",
      "prefecture": "東京都千代田区二番町８番地８",
      "certification": [
        {
          "certification_name": "なでしこ銘柄－認定",
          "certified_date": ""
        },
        {
          "certification_name": "次世代育成支援対策推進法に基づく「くるみん」認定",
          "certified_date": ""
        },
        {
          "certification_name": "えるぼし－認定",
          "certified_date": ""
        },
        {
          "certification_name": "第６回食品産業もったいない大賞",
          "certified_date": "2019-01-29"
        },
        {
          "certification_name": "平成３０年度循環型社会形成推進功労者環境大臣賞",
          "certified_date": "2018-10-12"
        }
      ],
      "lat": 35.686185,
      "lng": 139.736126
    },
    {
      "corporate_number": "1010001095640",
      "name": "第一三共株式会社",
      "address": "東京都中央区日本橋本町３丁目５番１号",
      "prefecture": "東京都中央区日本橋本町３丁目５番１号",
      "certification": [
        {
          "certification_name": "次世代育成支援対策推進法に基づく「プラチナくるみん」特例認定",
          "certified_date": ""
        },
        {
          "certification_name": "障害者雇用優良事業所の大臣表彰－表彰",
          "certified_date": ""
        },
        {
          "certification_name": "テレワーク推進企業等厚生労働大臣表彰－表彰（特別奨励賞）",
          "certified_date": ""
        },
        {
          "certification_name": "えるぼし－認定",
          "certified_date": ""
        },
        {
          "certification_name": "次世代育成支援対策推進法に基づく「くるみん」認定",
          "certified_date": ""
        },
        {
          "certification_name": "テレワーク推進企業等厚生労働大臣表彰（輝くテレワーク賞）",
          "certified_date": "2021-11-30"
        }
      ],
      "lat": 35.688153754,
      "lng": 139.77487164
    },
    {
      "corporate_number": "1010001095657",
      "name": "三菱電機トレーディング株式会社",
      "address": "東京都千代田区丸の内２丁目１番１号",
      "prefecture": "東京都千代田区丸の内２丁目１番１号",
      "certification": [
        {
          "certification_name": "次世代育成支援対策推進法に基づく「くるみん」認定",
          "certified_date": ""
        }
      ],
      "lat": 35.680022,
      "lng": 139.763447
    },
    {
      "corporate_number": "1010001096746",
      "name": "株式会社ブックウォーカー",
      "address": "東京都千代田区富士見２丁目１３番３号",
      "prefecture": "東京都千代田区富士見２丁目１３番３号",
      "certification": [
        {
          "certification_name": "えるぼし－認定",
          "certified_date": ""
        }
      ],
      "lat": 35.697751647,
      "lng": 139.744290211
    },
    {
      "corporate_number": "1010001097414",
      "name": "ライフライン・コミュニケーションズ株式会社",
      "address": "東京都新宿区西新宿１丁目２５番１号新宿センタービル４６階",
      "prefecture": "東京都新宿区西新宿１丁目２５番１号新宿センタービル４６階",
      "certification": [
        {
          "certification_name": "えるぼし－認定",
          "certified_date": ""
        }
      ],
      "lat": 35.691787489,
      "lng": 139.696374106
    },
    {
      "corporate_number": "1010001098858",
      "name": "麒麟麦酒株式会社",
      "address": "東京都中野区中野４丁目１０番２号",
      "prefecture": "東京都中野区中野４丁目１０番２号",
      "certification": [
        {
          "certification_name": "次世代育成支援対策推進法に基づく「くるみん」認定",
          "certified_date": ""
        },
        {
          "certification_name": "令和６年度食品ロス削減推進表彰",
          "certified_date": "2024-09-27"
        },
        {
          "certification_name": "グリーン物流パートナーシップ優良事業者表彰",
          "certified_date": "2017-12-13"
        }
      ],
      "lat": 35.707746,
      "lng": 139.66175
    },
    {
      "corporate_number": "1010001100425",
      "name": "株式会社ぎょうせい",
      "address": "東京都中央区銀座７丁目４番１２号",
      "prefecture": "東京都中央区銀座７丁目４番１２号",
      "certification": [
        {
          "certification_name": "次世代育成支援対策推進法に基づく「くるみん」認定",
          "certified_date": ""
        }
      ],
      "lat": 35.66993124900001,
      "lng": 139.760697933
    },
    {
      "corporate_number": "1010001103304",
      "name": "Ｘｓｐｅａｒ　Ｃｏｎｓｕｌｔｉｎｇ株式会社",
      "address": "東京都港区虎ノ門１丁目２３番１号",
      "prefecture": "東京都港区虎ノ門１丁目２３番１号",
      "certification": [
        {
          "certification_name": "えるぼし－認定",
          "certified_date": ""
        }
      ],
      "lat": 35.668358,
      "lng": 139.74967
    },
    {
      "corporate_number": "1010001108591",
      "name": "株式会社ロジスティクス・ネットワーク",
      "address": "東京都千代田区神田三崎町３丁目３番２３号",
      "prefecture": "東京都千代田区神田三崎町３丁目３番２３号",
      "certification": [
        {
          "certification_name": "グリーン物流パートナーシップ優良事業者表彰",
          "certified_date": "2017-12-13"
        }
      ],
      "lat": 35.700542,
      "lng": 139.752263
    },
    {
      "corporate_number": "1010001110829",
      "name": "リコージャパン株式会社",
      "address": "東京都大田区中馬込１丁目３番６号",
      "prefecture": "東京都大田区中馬込１丁目３番６号",
      "certification": [
        {
          "certification_name": "えるぼし－認定",
          "certified_date": ""
        },
        {
          "certification_name": "次世代育成支援対策推進法に基づく「くるみん」認定",
          "certified_date": ""
        },
        {
          "certification_name": "次世代育成支援対策推進法に基づく「プラチナくるみん」特例認定",
          "certified_date": ""
        }
      ],
      "lat": 35.598262683,
      "lng": 139.706035456
    },
    {
      "corporate_number": "1010001112445",
      "name": "株式会社エム・シー・アイ",
      "address": "東京都中央区日本橋室町１丁目７番１号",
      "prefecture": "東京都中央区日本橋室町１丁目７番１号",
      "certification": [
        {
          "certification_name": "次世代育成支援対策推進法に基づく「くるみん」認定",
          "certified_date": ""
        }
      ],
      "lat": 35.684697706,
      "lng": 139.774805849
    },
    {
      "corporate_number": "1010001113872",
      "name": "フォースバレー・コンシェルジュ株式会社",
      "address": "東京都千代田区麹町６丁目６番２号",
      "prefecture": "東京都千代田区麹町６丁目６番２号",
      "certification": [
        {
          "certification_name": "えるぼし－認定",
          "certified_date": ""
        }
      ],
      "lat": 35.684911,
      "lng": 139.731936
    },
    {
      "corporate_number": "1010001114136",
      "name": "ＳＭＦＬレンタル株式会社",
      "address": "東京都千代田区一ツ橋２丁目１番１号",
      "prefecture": "東京都千代田区一ツ橋２丁目１番１号",
      "certification": [
        {
          "certification_name": "次世代育成支援対策推進法に基づく「くるみん」認定",
          "certified_date": ""
        }
      ],
      "lat": 35.693171,
      "lng": 139.757346
    },
    {
      "corporate_number": "1010001115423",
      "name": "タイムズサービス株式会社",
      "address": "東京都品川区西五反田２丁目２０番４号",
      "prefecture": "東京都品川区西五反田２丁目２０番４号",
      "certification": [
        {
          "certification_name": "次世代育成支援対策推進法に基づく「くるみん」認定",
          "certified_date": ""
        }
      ],
      "lat": 35.62596269,
      "lng": 139.7220583
    },
    {
      "corporate_number": "1010001116669",
      "name": "三菱地所プロパティマネジメント株式会社",
      "address": "東京都千代田区丸の内２丁目５番１号",
      "prefecture": "東京都千代田区丸の内２丁目５番１号",
      "certification": [
        {
          "certification_name": "次世代育成支援対策推進法に基づく「くるみん」認定",
          "certified_date": ""
        },
        {
          "certification_name": "次世代育成支援対策推進法に基づく「プラチナくるみん」特例認定",
          "certified_date": ""
        }
      ],
      "lat": 35.680022,
      "lng": 139.763447
    },
    {
      "corporate_number": "1010001118723",
      "name": "新日本コンピュータマネジメント株式会社",
      "address": "東京都新宿区市谷本村町１番１号",
      "prefecture": "東京都新宿区市谷本村町１番１号",
      "certification": [
        {
          "certification_name": "次世代育成支援対策推進法に基づく「くるみん」認定",
          "certified_date": ""
        }
      ],
      "lat": 35.692544,
      "lng": 139.729326
    },
    {
      "corporate_number": "1010001126197",
      "name": "三菱ＵＦＪインフォメーションテクノロジー株式会社",
      "address": "東京都中野区中野４丁目１０番２号",
      "prefecture": "東京都中野区中野４丁目１０番２号",
      "certification": [
        {
          "certification_name": "えるぼし－認定",
          "certified_date": ""
        },
        {
          "certification_name": "次世代育成支援対策推進法に基づく「くるみん」認定",
          "certified_date": ""
        },
        {
          "certification_name": "次世代育成支援対策推進法に基づく「プラチナくるみん」特例認定",
          "certified_date": ""
        }
      ],
      "lat": 35.707746,
      "lng": 139.66175
    },
    {
      "corporate_number": "1010001128061",
      "name": "日本アイ・ビー・エム株式会社",
      "address": "東京都港区虎ノ門２丁目６番１号",
      "prefecture": "東京都港区虎ノ門２丁目６番１号",
      "certification": [
        {
          "certification_name": "えるぼし－認定",
          "certified_date": ""
        },
        {
          "certification_name": "次世代育成支援対策推進法に基づく「くるみん」認定",
          "certified_date": ""
        }
      ],
      "lat": 35.66849,
      "lng": 139.746192
    },
    {
      "corporate_number": "1010001132055",
      "name": "ＪＣＯＭ株式会社",
      "address": "東京都千代田区丸の内１丁目８番１号",
      "prefecture": "東京都千代田区丸の内１丁目８番１号",
      "certification": [
        {
          "certification_name": "えるぼし－認定",
          "certified_date": ""
        },
        {
          "certification_name": "次世代育成支援対策推進法に基づく「くるみん」認定",
          "certified_date": ""
        },
        {
          "certification_name": "次世代育成支援対策推進法に基づく「プラチナくるみん」特例認定",
          "certified_date": ""
        }
      ],
      "lat": 35.68156,
      "lng": 139.767201
    },
    {
      "corporate_number": "1010001137277",
      "name": "ＳＯＬＩＺＥ　Ｈｏｌｄｉｎｇｓ株式会社",
      "address": "東京都千代田区三番町６番３号",
      "prefecture": "東京都千代田区三番町６番３号",
      "certification": [
        {
          "certification_name": "次世代育成支援対策推進法に基づく「くるみん」認定",
          "certified_date": ""
        }
      ],
      "lat": 35.690557,
      "lng": 139.743591
    },
    {
      "corporate_number": "1010001139760",
      "name": "株式会社電通アドギア",
      "address": "東京都中央区銀座８丁目２１番１号住友不動産汐留浜離宮ビル２０階",
      "prefecture": "東京都中央区銀座８丁目２１番１号住友不動産汐留浜離宮ビル２０階",
      "certification": [
        {
          "certification_name": "えるぼし－認定",
          "certified_date": ""
        },
        {
          "certification_name": "次世代育成支援対策推進法に基づく「くるみん」認定",
          "certified_date": ""
        }
      ],
      "lat": 35.664540335,
      "lng": 139.763682852
    },
    {
      "corporate_number": "1010001139901",
      "name": "株式会社ＩＩＪグローバルソリューションズ",
      "address": "東京都千代田区富士見２丁目１０番２号",
      "prefecture": "東京都千代田区富士見２丁目１０番２号",
      "certification": [
        {
          "certification_name": "えるぼし－認定",
          "certified_date": ""
        }
      ],
      "lat": 35.699115878,
      "lng": 139.744632586
    },
    {
      "corporate_number": "1010001141097",
      "name": "ＭＸモバイリング株式会社",
      "address": "東京都江東区豊洲３丁目２番２４号",
      "prefecture": "東京都江東区豊洲３丁目２番２４号",
      "certification": [
        {
          "certification_name": "えるぼし－認定",
          "certified_date": ""
        },
        {
          "certification_name": "次世代育成支援対策推進法に基づく「くるみん」認定",
          "certified_date": ""
        }
      ],
      "lat": 35.6569813,
      "lng": 139.794489086
    },
    {
      "corporate_number": "1010001142673",
      "name": "ＵＬＳコンサルティング株式会社",
      "address": "東京都中央区晴海１丁目８番１０号晴海アイランドトリトンスクエアオフィスタワーＸ棟１４階",
      "prefecture": "東京都中央区晴海１丁目８番１０号晴海アイランドトリトンスクエアオフィスタワーＸ棟１４階",
      "certification": [
        {
          "certification_name": "次世代育成支援対策推進法に基づく「くるみん」認定",
          "certified_date": ""
        }
      ],
      "lat": 35.659523,
      "lng": 139.786164
    },
    {
      "corporate_number": "1010001143390",
      "name": "株式会社ＮＴＴデータ経営研究所",
      "address": "東京都千代田区平河町２丁目７番９号",
      "prefecture": "東京都千代田区平河町２丁目７番９号",
      "certification": [
        {
          "certification_name": "次世代育成支援対策推進法に基づく「くるみん」認定",
          "certified_date": ""
        }
      ],
      "lat": 35.680376,
      "lng": 139.740097
    },
    {
      "corporate_number": "1010001145800",
      "name": "アラムコ・アジア・ジャパン株式会社",
      "address": "東京都千代田区丸の内２丁目４番１号丸の内ビルディング２６階",
      "prefecture": "東京都千代田区丸の内２丁目４番１号丸の内ビルディング２６階",
      "certification": [
        {
          "certification_name": "農林水産大臣感謝状",
          "certified_date": "2019-03-19"
        }
      ],
      "lat": 35.680022,
      "lng": 139.763447
    },
    {
      "corporate_number": "1010001146146",
      "name": "三井住友トラスト・パナソニックファイナンス株式会社",
      "address": "東京都港区芝浦１丁目２番３号",
      "prefecture": "東京都港区芝浦１丁目２番３号",
      "certification": [
        {
          "certification_name": "えるぼし－認定",
          "certified_date": ""
        },
        {
          "certification_name": "次世代育成支援対策推進法に基づく「くるみん」認定",
          "certified_date": ""
        }
      ],
      "lat": 35.64874400000001,
      "lng": 139.755448
    },
    {
      "corporate_number": "1010001146848",
      "name": "株式会社日立コンサルティング",
      "address": "東京都千代田区麹町２丁目４番地１",
      "prefecture": "東京都千代田区麹町２丁目４番地１",
      "certification": [
        {
          "certification_name": "えるぼし－認定",
          "certified_date": ""
        },
        {
          "certification_name": "次世代育成支援対策推進法に基づく「くるみん」認定",
          "certified_date": ""
        }
      ],
      "lat": 35.684487,
      "lng": 139.740505
    },
    {
      "corporate_number": "1010001159494",
      "name": "株式会社Ｐｒｅｆｅｒｒｅｄ　Ｎｅｔｗｏｒｋｓ",
      "address": "東京都千代田区大手町１丁目６番１号大手町ビル",
      "prefecture": "東京都千代田区大手町１丁目６番１号大手町ビル",
      "certification": [
        {
          "certification_name": "次世代育成支援対策推進法に基づく「くるみん」認定",
          "certified_date": ""
        },
        {
          "certification_name": "日本ベンチャー大賞",
          "certified_date": "2019-05-23"
        }
      ],
      "lat": 35.688069,
      "lng": 139.763929
    },
    {
      "corporate_number": "1010001159627",
      "name": "株式会社シーエーシー",
      "address": "東京都中央区日本橋箱崎町２４番１号",
      "prefecture": "東京都中央区日本橋箱崎町２４番１号",
      "certification": [
        {
          "certification_name": "えるぼし－認定",
          "certified_date": ""
        }
      ],
      "lat": 35.680416333,
      "lng": 139.786362952
    },
    {
      "corporate_number": "1010001164791",
      "name": "プリモ・ジャパン株式会社",
      "address": "東京都中央区銀座５丁目１２番５号",
      "prefecture": "東京都中央区銀座５丁目１２番５号",
      "certification": [
        {
          "certification_name": "えるぼし－認定",
          "certified_date": ""
        },
        {
          "certification_name": "次世代育成支援対策推進法に基づく「くるみん」認定",
          "certified_date": ""
        }
      ],
      "lat": 35.66943015,
      "lng": 139.766537852
    },
    {
      "corporate_number": "1010001174683",
      "name": "第一生命保険株式会社",
      "address": "東京都千代田区有楽町１丁目１３番１号",
      "prefecture": "東京都千代田区有楽町１丁目１３番１号",
      "certification": [
        {
          "certification_name": "次世代育成支援対策推進法に基づく「くるみん」認定",
          "certified_date": ""
        },
        {
          "certification_name": "次世代育成支援対策推進法に基づく「プラチナくるみん」特例認定",
          "certified_date": ""
        },
        {
          "certification_name": "なでしこ銘柄－認定",
          "certified_date": ""
        },
        {
          "certification_name": "健康経営銘柄－認定",
          "certified_date": ""
        }
      ],
      "lat": 35.674483,
      "lng": 139.76055
    },
    {
      "corporate_number": "1010001177471",
      "name": "株式会社ノバレーゼ",
      "address": "東京都中央区銀座１丁目８番１４号",
      "prefecture": "東京都中央区銀座１丁目８番１４号",
      "certification": [
        {
          "certification_name": "次世代育成支援対策推進法に基づく「くるみん」認定",
          "certified_date": ""
        },
        {
          "certification_name": "なでしこ銘柄－認定",
          "certified_date": ""
        }
      ],
      "lat": 35.67386111100001,
      "lng": 139.767997683
    },
    {
      "corporate_number": "1010001183775",
      "name": "株式会社三井Ｅ＆Ｓエンジニアリング",
      "address": "東京都中央区築地５丁目６番４号",
      "prefecture": "東京都中央区築地５丁目６番４号",
      "certification": [
        {
          "certification_name": "次世代育成支援対策推進法に基づく「くるみん」認定",
          "certified_date": ""
        }
      ],
      "lat": 35.662878,
      "lng": 139.767886
    },
    {
      "corporate_number": "1010001191596",
      "name": "カルチュアルライフ株式会社",
      "address": "東京都文京区本郷１丁目４－４水道橋ビル５Ｆ",
      "prefecture": "東京都文京区本郷１丁目４－４水道橋ビル５Ｆ",
      "certification": [
        {
          "certification_name": "えるぼし－認定",
          "certified_date": ""
        }
      ],
      "lat": 35.703305344,
      "lng": 139.755395961
    },
    {
      "corporate_number": "1010001200670",
      "name": "株式会社シンプルエデュケーション",
      "address": "東京都千代田区麹町２丁目１番地ＰＭＯ半蔵門ビル２Ｆ",
      "prefecture": "東京都千代田区麹町２丁目１番地ＰＭＯ半蔵門ビル２Ｆ",
      "certification": [
        {
          "certification_name": "えるぼし－認定",
          "certified_date": ""
        }
      ],
      "lat": 35.684487,
      "lng": 139.740505
    },
    {
      "corporate_number": "1010001205810",
      "name": "株式会社エスプールリンク",
      "address": "東京都千代田区外神田１丁目１８番１３号",
      "prefecture": "東京都千代田区外神田１丁目１８番１３号",
      "certification": [
        {
          "certification_name": "えるぼし－認定",
          "certified_date": ""
        }
      ],
      "lat": 35.699182581,
      "lng": 139.772418031
    },
    {
      "corporate_number": "1010001229066",
      "name": "株式会社マッシュホールディングス",
      "address": "東京都千代田区麹町５丁目７番地１",
      "prefecture": "東京都千代田区麹町５丁目７番地１",
      "certification": [
        {
          "certification_name": "えるぼし－認定",
          "certified_date": ""
        }
      ],
      "lat": 35.683677,
      "lng": 139.73419
    },
    {
      "corporate_number": "1010005002485",
      "name": "気象庁生活協同組合",
      "address": "東京都千代田区大手町１丁目３番４号",
      "prefecture": "東京都千代田区大手町１丁目３番４号",
      "certification": [
        {
          "certification_name": "気象庁長官表彰",
          "certified_date": "2020-06-01"
        }
      ],
      "lat": 35.688069,
      "lng": 139.763929
    },
    {
      "corporate_number": "1010005002667",
      "name": "一般財団法人経済調査会",
      "address": "東京都港区芝５丁目３４番２号",
      "prefecture": "東京都港区芝５丁目３４番２号",
      "certification": [
        {
          "certification_name": "次世代育成支援対策推進法に基づく「くるみん」認定",
          "certified_date": ""
        },
        {
          "certification_name": "次世代育成支援対策推進法に基づく「プラチナくるみん」特例認定",
          "certified_date": ""
        }
      ],
      "lat": 35.647133,
      "lng": 139.746672
    },
    {
      "corporate_number": "1010005002980",
      "name": "公益財団法人鉄道弘済会",
      "address": "東京都文京区小石川１丁目１番１号",
      "prefecture": "東京都文京区小石川１丁目１番１号",
      "certification": [
        {
          "certification_name": "次世代育成支援対策推進法に基づく「くるみん」認定",
          "certified_date": ""
        }
      ],
      "lat": 35.708605556,
      "lng": 139.753137539
    },
    {
      "corporate_number": "1010005003211",
      "name": "一般社団法人全国労働保険事務組合連合会",
      "address": "東京都千代田区五番町１２番地３",
      "prefecture": "東京都千代田区五番町１２番地３",
      "certification": [
        {
          "certification_name": "えるぼし－認定",
          "certified_date": ""
        }
      ],
      "lat": 35.689685,
      "lng": 139.733989
    },
    {
      "corporate_number": "1010005004291",
      "name": "公益社団法人日本測量協会",
      "address": "東京都文京区小石川１丁目５番１号",
      "prefecture": "東京都文京区小石川１丁目５番１号",
      "certification": [
        {
          "certification_name": "災害対策関係功労者感謝状贈呈",
          "certified_date": "2019-03-04"
        }
      ],
      "lat": 35.711978,
      "lng": 139.752073
    },
    {
      "corporate_number": "1010005005059",
      "name": "ＥＹ新日本有限責任監査法人",
      "address": "東京都千代田区有楽町１丁目１番２号",
      "prefecture": "東京都千代田区有楽町１丁目１番２号",
      "certification": [
        {
          "certification_name": "えるぼし－認定",
          "certified_date": ""
        },
        {
          "certification_name": "次世代育成支援対策推進法に基づく「くるみん」認定",
          "certified_date": ""
        }
      ],
      "lat": 35.674483,
      "lng": 139.76055
    },
    {
      "corporate_number": "1010005005918",
      "name": "ＰｗＣ税理士法人",
      "address": "東京都千代田区大手町１丁目２番１号",
      "prefecture": "東京都千代田区大手町１丁目２番１号",
      "certification": [
        {
          "certification_name": "えるぼし－認定",
          "certified_date": ""
        },
        {
          "certification_name": "次世代育成支援対策推進法に基づく「くるみん」認定",
          "certified_date": ""
        }
      ],
      "lat": 35.688069,
      "lng": 139.763929
    },
    {
      "corporate_number": "1010005016709",
      "name": "公益財団法人国際交通安全学会",
      "address": "東京都中央区八重洲２丁目１番１号",
      "prefecture": "東京都中央区八重洲２丁目１番１号",
      "certification": [
        {
          "certification_name": "令和６年度外務大臣表彰",
          "certified_date": "2024-08-08"
        }
      ],
      "lat": 35.680033513000005,
      "lng": 139.769337981
    },
    {
      "corporate_number": "1010005018556",
      "name": "一般社団法人日本労働者信用基金協会",
      "address": "東京都文京区後楽１丁目４番１４号",
      "prefecture": "東京都文京区後楽１丁目４番１４号",
      "certification": [
        {
          "certification_name": "次世代育成支援対策推進法に基づく「くるみん」認定",
          "certified_date": ""
        }
      ],
      "lat": 35.703357794,
      "lng": 139.749689897
    },
    {
      "corporate_number": "1010005018597",
      "name": "一般財団法人建材試験センター",
      "address": "東京都中央区日本橋堀留町１丁目１０番１５号ＪＬ日本橋ビル",
      "prefecture": "東京都中央区日本橋堀留町１丁目１０番１５号ＪＬ日本橋ビル",
      "certification": [
        {
          "certification_name": "次世代育成支援対策推進法に基づく「くるみん」認定",
          "certified_date": ""
        }
      ],
      "lat": 35.688365825,
      "lng": 139.780367138
    },
    {
      "corporate_number": "1010005019637",
      "name": "弁理士法人志賀国際特許事務所",
      "address": "東京都千代田区丸の内１丁目９番２号グラントウキョウサウスタワー",
      "prefecture": "東京都千代田区丸の内１丁目９番２号グラントウキョウサウスタワー",
      "certification": [
        {
          "certification_name": "えるぼし－認定",
          "certified_date": ""
        }
      ],
      "lat": 35.68156,
      "lng": 139.767201
    },
    {
      "corporate_number": "1010101000640",
      "name": "株式会社エリオニクス",
      "address": "東京都八王子市元横山町３丁目７番６号",
      "prefecture": "東京都八王子市元横山町３丁目７番６号",
      "certification": [
        {
          "certification_name": "地域未来牽引企業",
          "certified_date": "2020-10-13"
        }
      ],
      "lat": 35.664038828,
      "lng": 139.335403361
    },
    {
      "corporate_number": "1010101003874",
      "name": "株式会社ミラック光学",
      "address": "東京都八王子市越野２７番地の４",
      "prefecture": "東京都八王子市越野２７番地の４",
      "certification": [
        {
          "certification_name": "知財功労賞（知的財産権制度活用優良企業等表彰）",
          "certified_date": "2020-04-17"
        }
      ],
      "lat": 35.630231,
      "lng": 139.388327
    },
    {
      "corporate_number": "1010401000530",
      "name": "アーサー・ディ・リトル・ジャパン株式会社",
      "address": "東京都港区東新橋１丁目５番２号汐留シティセンター",
      "prefecture": "東京都港区東新橋１丁目５番２号汐留シティセンター",
      "certification": [
        {
          "certification_name": "えるぼし－認定",
          "certified_date": ""
        },
        {
          "certification_name": "次世代育成支援対策推進法に基づく「くるみん」認定",
          "certified_date": ""
        }
      ],
      "lat": 35.663118,
      "lng": 139.760581
    },
    {
      "corporate_number": "1010401002881",
      "name": "伊藤忠メタルズ株式会社",
      "address": "東京都港区北青山２丁目５番１号",
      "prefecture": "東京都港区北青山２丁目５番１号",
      "certification": [
        {
          "certification_name": "次世代育成支援対策推進法に基づく「くるみん」認定",
          "certified_date": ""
        }
      ],
      "lat": 35.671934,
      "lng": 139.717754
    },
    {
      "corporate_number": "1010401005018",
      "name": "エノテカ株式会社",
      "address": "東京都港区南麻布５丁目１４番１５号",
      "prefecture": "東京都港区南麻布５丁目１４番１５号",
      "certification": [
        {
          "certification_name": "えるぼし－認定",
          "certified_date": ""
        },
        {
          "certification_name": "次世代育成支援対策推進法に基づく「くるみん」認定",
          "certified_date": ""
        }
      ],
      "lat": 35.653403,
      "lng": 139.72453
    },
    {
      "corporate_number": "1010401006180",
      "name": "株式会社オカモトヤ",
      "address": "東京都港区虎ノ門１丁目１番２４号",
      "prefecture": "東京都港区虎ノ門１丁目１番２４号",
      "certification": [
        {
          "certification_name": "次世代育成支援対策推進法に基づく「くるみん」認定",
          "certified_date": ""
        }
      ],
      "lat": 35.668358,
      "lng": 139.74967
    },
    {
      "corporate_number": "1010401009745",
      "name": "株式会社小糸製作所",
      "address": "東京都品川区北品川５丁目１番１８号住友不動産大崎ツインビル東館",
      "prefecture": "東京都品川区北品川５丁目１番１８号住友不動産大崎ツインビル東館",
      "certification": [
        {
          "certification_name": "次世代育成支援対策推進法に基づく「くるみん」認定",
          "certified_date": ""
        }
      ],
      "lat": 35.62365544,
      "lng": 139.7316889
    },
    {
      "corporate_number": "1010401010455",
      "name": "株式会社小松製作所",
      "address": "東京都港区海岸１丁目２番２０号",
      "prefecture": "東京都港区海岸１丁目２番２０号",
      "certification": [
        {
          "certification_name": "なでしこ銘柄－認定",
          "certified_date": ""
        },
        {
          "certification_name": "次世代育成支援対策推進法に基づく「くるみん」認定",
          "certified_date": ""
        },
        {
          "certification_name": "攻めのＩＴ経営銘柄",
          "certified_date": "2019-04-23"
        }
      ],
      "lat": 35.655382,
      "lng": 139.761674
    },
    {
      "corporate_number": "1010401011494",
      "name": "サントリーマーケティング＆コマース株式会社",
      "address": "東京都中央区晴海１丁目８番１２号",
      "prefecture": "東京都中央区晴海１丁目８番１２号",
      "certification": [
        {
          "certification_name": "次世代育成支援対策推進法に基づく「くるみん」認定",
          "certified_date": ""
        }
      ],
      "lat": 35.659523,
      "lng": 139.786164
    },
    {
      "corporate_number": "1010401013565",
      "name": "清水建設株式会社",
      "address": "東京都中央区京橋２丁目１６番１号",
      "prefecture": "東京都中央区京橋２丁目１６番１号",
      "certification": [
        {
          "certification_name": "えるぼし－認定",
          "certified_date": ""
        },
        {
          "certification_name": "なでしこ銘柄－認定",
          "certified_date": ""
        },
        {
          "certification_name": "令和５年度脱炭素都市づくり大賞",
          "certified_date": "2024-02-28"
        },
        {
          "certification_name": "熊本防衛支局優秀工事顕彰",
          "certified_date": "2022-07-13"
        },
        {
          "certification_name": "熊本防衛支局優秀工事技術者顕彰",
          "certified_date": "2022-07-13"
        }
      ],
      "lat": 35.676777425,
      "lng": 139.773057036
    },
    {
      "corporate_number": "1010401014423",
      "name": "株式会社ジャパンテクニカルソフトウェア",
      "address": "東京都港区港南２丁目１３番３１号",
      "prefecture": "東京都港区港南２丁目１３番３１号",
      "certification": [
        {
          "certification_name": "次世代育成支援対策推進法に基づく「くるみん」認定",
          "certified_date": ""
        }
      ],
      "lat": 35.630932,
      "lng": 139.73970300000002
    },
    {
      "corporate_number": "1010401016618",
      "name": "大東建託パートナーズ株式会社",
      "address": "東京都港区港南２丁目１６番１号",
      "prefecture": "東京都港区港南２丁目１６番１号",
      "certification": [
        {
          "certification_name": "えるぼし－認定",
          "certified_date": ""
        },
        {
          "certification_name": "次世代育成支援対策推進法に基づく「くるみん」認定",
          "certified_date": ""
        },
        {
          "certification_name": "安全衛生優良企業公表制度－認定",
          "certified_date": ""
        }
      ],
      "lat": 35.630932,
      "lng": 139.73970300000002
    },
    {
      "corporate_number": "1010401017640",
      "name": "株式会社ＳＭＢＣ信託銀行",
      "address": "東京都千代田区丸の内１丁目３番２号",
      "prefecture": "東京都千代田区丸の内１丁目３番２号",
      "certification": [
        {
          "certification_name": "えるぼし－認定",
          "certified_date": ""
        }
      ],
      "lat": 35.68156,
      "lng": 139.767201
    },
    {
      "corporate_number": "1010401020974",
      "name": "東京レコードマネジメント株式会社",
      "address": "東京都品川区西五反田２丁目３０番４号",
      "prefecture": "東京都品川区西五反田２丁目３０番４号",
      "certification": [
        {
          "certification_name": "えるぼし－認定",
          "certified_date": ""
        }
      ],
      "lat": 35.62468651,
      "lng": 139.7204179
    },
    {
      "corporate_number": "1010401022715",
      "name": "株式会社日本色材工業研究所",
      "address": "東京都港区三田５丁目３番１３号",
      "prefecture": "東京都港区三田５丁目３番１３号",
      "certification": [
        {
          "certification_name": "次世代育成支援対策推進法に基づく「くるみん」認定",
          "certified_date": ""
        }
      ],
      "lat": 35.646225,
      "lng": 139.737808
    },
    {
      "corporate_number": "1010401023060",
      "name": "株式会社ジルコ",
      "address": "東京都港区新橋５丁目３４番４号農業土木会館",
      "prefecture": "東京都港区新橋５丁目３４番４号農業土木会館",
      "certification": [
        {
          "certification_name": "令和５年度東北農政局所管農業農村整備事業等優良工事等の受注者等の表彰",
          "certified_date": "2023-12-11"
        },
        {
          "certification_name": "令和４年度近畿農政局所管農業農村整備事業等優良工事等の受注者等の表彰",
          "certified_date": "2023-01-30"
        },
        {
          "certification_name": "令和４年度東北農政局所管農業農村整備事業等優良工事等の受注者等の表彰",
          "certified_date": "2023-01-27"
        },
        {
          "certification_name": "令和４年度中国四国農政局所管農業農村整備事業等優良工事等の受注者等の表彰",
          "certified_date": "2023-01-12"
        },
        {
          "certification_name": "令和３年度中国四国農政局所管農業農村整備事業等優良工事等の受賞者の表彰",
          "certified_date": "2022-01-31"
        }
      ],
      "lat": 35.663089,
      "lng": 139.755002
    },
    {
      "corporate_number": "1010401023102",
      "name": "ＰｗＣコンサルティング合同会社",
      "address": "東京都千代田区大手町１丁目２番１号",
      "prefecture": "東京都千代田区大手町１丁目２番１号",
      "certification": [
        {
          "certification_name": "次世代育成支援対策推進法に基づく「くるみん」認定",
          "certified_date": ""
        },
        {
          "certification_name": "えるぼし－認定",
          "certified_date": ""
        }
      ],
      "lat": 35.688069,
      "lng": 139.763929
    },
    {
      "corporate_number": "1010401023408",
      "name": "株式会社日本旅行",
      "address": "東京都中央区日本橋１丁目１９番１号",
      "prefecture": "東京都中央区日本橋１丁目１９番１号",
      "certification": [
        {
          "certification_name": "えるぼし－認定",
          "certified_date": ""
        },
        {
          "certification_name": "次世代育成支援対策推進法に基づく「くるみん」認定",
          "certified_date": ""
        }
      ],
      "lat": 35.683640763,
      "lng": 139.778044678
    },
    {
      "corporate_number": "1010401023721",
      "name": "ハーゲンダッツジャパン株式会社",
      "address": "東京都目黒区上目黒２丁目１番１号",
      "prefecture": "東京都目黒区上目黒２丁目１番１号",
      "certification": [
        {
          "certification_name": "次世代育成支援対策推進法に基づく「くるみん」認定",
          "certified_date": ""
        }
      ],
      "lat": 35.643976506,
      "lng": 139.699287483
    },
    {
      "corporate_number": "1010401025734",
      "name": "フィデリティ投信株式会社",
      "address": "東京都港区六本木７丁目７番７号",
      "prefecture": "東京都港区六本木７丁目７番７号",
      "certification": [
        {
          "certification_name": "えるぼし－認定",
          "certified_date": ""
        }
      ],
      "lat": 35.664226,
      "lng": 139.727698
    },
    {
      "corporate_number": "1010401025874",
      "name": "株式会社フィリップス・ジャパン",
      "address": "東京都港区麻布台１丁目３番１号麻布台ヒルズ森ＪＰタワー１５階",
      "prefecture": "東京都港区麻布台１丁目３番１号麻布台ヒルズ森ＪＰタワー１５階",
      "certification": [
        {
          "certification_name": "えるぼし－認定",
          "certified_date": ""
        }
      ],
      "lat": 35.661402,
      "lng": 139.74022300000001
    },
    {
      "corporate_number": "1010401027169",
      "name": "株式会社ペリカン石鹸",
      "address": "東京都港区西新橋３丁目１０番７号",
      "prefecture": "東京都港区西新橋３丁目１０番７号",
      "certification": [
        {
          "certification_name": "消費者志向経営優良事例表彰",
          "certified_date": "2023-02-28"
        }
      ],
      "lat": 35.663308,
      "lng": 139.751064
    },
    {
      "corporate_number": "1010401029009",
      "name": "美和ロック株式会社",
      "address": "東京都港区芝３丁目１番１２号",
      "prefecture": "東京都港区芝３丁目１番１２号",
      "certification": [
        {
          "certification_name": "地域未来牽引企業",
          "certified_date": "2020-10-13"
        }
      ],
      "lat": 35.65233,
      "lng": 139.747302
    },
    {
      "corporate_number": "1010401029660",
      "name": "森永製菓株式会社",
      "address": "東京都港区芝浦１丁目１３番１６号",
      "prefecture": "東京都港区芝浦１丁目１３番１６号",
      "certification": [
        {
          "certification_name": "次世代育成支援対策推進法に基づく「プラチナくるみん」特例認定",
          "certified_date": ""
        },
        {
          "certification_name": "次世代育成支援対策推進法に基づく「くるみん」認定",
          "certified_date": ""
        },
        {
          "certification_name": "消費者志向経営優良事例表彰",
          "certified_date": "2023-02-28"
        }
      ],
      "lat": 35.64874400000001,
      "lng": 139.755448
    },
    {
      "corporate_number": "1010401029669",
      "name": "森ビル株式会社",
      "address": "東京都港区六本木６丁目１０番１号",
      "prefecture": "東京都港区六本木６丁目１０番１号",
      "certification": [
        {
          "certification_name": "えるぼし－認定",
          "certified_date": ""
        },
        {
          "certification_name": "次世代育成支援対策推進法に基づく「くるみん」認定",
          "certified_date": ""
        }
      ],
      "lat": 35.660329,
      "lng": 139.730276
    },
    {
      "corporate_number": "1010401033225",
      "name": "株式会社極洋",
      "address": "東京都港区赤坂３丁目３番５号",
      "prefecture": "東京都港区赤坂３丁目３番５号",
      "certification": [
        {
          "certification_name": "えるぼし－認定",
          "certified_date": ""
        },
        {
          "certification_name": "次世代育成支援対策推進法に基づく「くるみん」認定",
          "certified_date": ""
        }
      ],
      "lat": 35.675639,
      "lng": 139.737141
    },
    {
      "corporate_number": "1010401040543",
      "name": "株式会社イー・ウーマン",
      "address": "東京都港区南青山２丁目４番１６号",
      "prefecture": "東京都港区南青山２丁目４番１６号",
      "certification": [
        {
          "certification_name": "えるぼし－認定",
          "certified_date": ""
        }
      ],
      "lat": 35.667311,
      "lng": 139.721885
    },
    {
      "corporate_number": "1010401042424",
      "name": "アルコニックス株式会社",
      "address": "東京都千代田区永田町２丁目１１番１号",
      "prefecture": "東京都千代田区永田町２丁目１１番１号",
      "certification": [
        {
          "certification_name": "次世代育成支援対策推進法に基づく「くるみん」認定",
          "certified_date": ""
        }
      ],
      "lat": 35.67505,
      "lng": 139.741228
    },
    {
      "corporate_number": "1010401045658",
      "name": "株式会社ホテルオークラ東京",
      "address": "東京都港区虎ノ門２丁目１０番４号",
      "prefecture": "東京都港区虎ノ門２丁目１０番４号",
      "certification": [
        {
          "certification_name": "次世代育成支援対策推進法に基づく「くるみん」認定",
          "certified_date": ""
        }
      ],
      "lat": 35.66849,
      "lng": 139.746192
    },
    {
      "corporate_number": "1010401049031",
      "name": "株式会社電通キャスティングアンドエンタテインメント",
      "address": "東京都港区東新橋１丁目８番１号",
      "prefecture": "東京都港区東新橋１丁目８番１号",
      "certification": [
        {
          "certification_name": "えるぼし－認定",
          "certified_date": ""
        }
      ],
      "lat": 35.663118,
      "lng": 139.760581
    },
    {
      "corporate_number": "1010401050996",
      "name": "株式会社電通東日本",
      "address": "東京都港区東新橋１丁目８番１号",
      "prefecture": "東京都港区東新橋１丁目８番１号",
      "certification": [
        {
          "certification_name": "えるぼし－認定",
          "certified_date": ""
        }
      ],
      "lat": 35.663118,
      "lng": 139.760581
    },
    {
      "corporate_number": "1010401051128",
      "name": "株式会社オーエフ",
      "address": "東京都港区海岸１丁目１１番１号",
      "prefecture": "東京都港区海岸１丁目１１番１号",
      "certification": [
        {
          "certification_name": "次世代育成支援対策推進法に基づく「くるみん」認定",
          "certified_date": ""
        }
      ],
      "lat": 35.655382,
      "lng": 139.761674
    },
    {
      "corporate_number": "1010401051169",
      "name": "玉井商船株式会社",
      "address": "東京都港区芝浦３丁目２番１６号",
      "prefecture": "東京都港区芝浦３丁目２番１６号",
      "certification": [
        {
          "certification_name": "気象庁長官表彰",
          "certified_date": "2020-06-01"
        }
      ],
      "lat": 35.643973,
      "lng": 139.747836
    },
    {
      "corporate_number": "1010401051219",
      "name": "株式会社ＦＲＯＮＴＥＯ",
      "address": "東京都港区港南２丁目１２番２３号",
      "prefecture": "東京都港区港南２丁目１２番２３号",
      "certification": [
        {
          "certification_name": "えるぼし－認定",
          "certified_date": ""
        }
      ],
      "lat": 35.630932,
      "lng": 139.73970300000002
    },
    {
      "corporate_number": "1010401052638",
      "name": "株式会社シャノン",
      "address": "東京都港区浜松町２丁目２番１２号",
      "prefecture": "東京都港区浜松町２丁目２番１２号",
      "certification": [
        {
          "certification_name": "えるぼし－認定",
          "certified_date": ""
        }
      ],
      "lat": 35.654862,
      "lng": 139.755988
    },
    {
      "corporate_number": "1010401053834",
      "name": "ＨＰＰホールディングス株式会社",
      "address": "東京都港区港南２丁目１８番１号",
      "prefecture": "東京都港区港南２丁目１８番１号",
      "certification": [
        {
          "certification_name": "次世代育成支援対策推進法に基づく「くるみん」認定",
          "certified_date": ""
        }
      ],
      "lat": 35.630932,
      "lng": 139.73970300000002
    },
    {
      "corporate_number": "1010401054361",
      "name": "株式会社リンクレア",
      "address": "東京都港区港南２丁目１６番３号",
      "prefecture": "東京都港区港南２丁目１６番３号",
      "certification": [
        {
          "certification_name": "次世代育成支援対策推進法に基づく「くるみん」認定",
          "certified_date": ""
        }
      ],
      "lat": 35.630932,
      "lng": 139.73970300000002
    },
    {
      "corporate_number": "1010401056795",
      "name": "ソフトバンクグループ株式会社",
      "address": "東京都港区海岸１丁目７番１号",
      "prefecture": "東京都港区海岸１丁目７番１号",
      "certification": [
        {
          "certification_name": "えるぼし－認定",
          "certified_date": ""
        },
        {
          "certification_name": "次世代育成支援対策推進法に基づく「くるみん」認定",
          "certified_date": ""
        }
      ],
      "lat": 35.655382,
      "lng": 139.761674
    },
    {
      "corporate_number": "1010401059022",
      "name": "オリックス・システム株式会社",
      "address": "東京都港区浜松町２丁目４番１号",
      "prefecture": "東京都港区浜松町２丁目４番１号",
      "certification": [
        {
          "certification_name": "えるぼし－認定",
          "certified_date": ""
        }
      ],
      "lat": 35.654862,
      "lng": 139.755988
    },
    {
      "corporate_number": "1010401059716",
      "name": "株式会社インフィニトラベルインフォメーション",
      "address": "東京都港区赤坂４丁目２番６号",
      "prefecture": "東京都港区赤坂４丁目２番６号",
      "certification": [
        {
          "certification_name": "えるぼし－認定",
          "certified_date": ""
        }
      ],
      "lat": 35.674826,
      "lng": 139.733574
    },
    {
      "corporate_number": "1010401063692",
      "name": "太陽生命保険株式会社",
      "address": "東京都中央区日本橋２丁目７番１号",
      "prefecture": "東京都中央区日本橋２丁目７番１号",
      "certification": [
        {
          "certification_name": "次世代育成支援対策推進法に基づく「くるみん」認定",
          "certified_date": ""
        },
        {
          "certification_name": "次世代育成支援対策推進法に基づく「プラチナくるみん」特例認定",
          "certified_date": ""
        }
      ],
      "lat": 35.682315288,
      "lng": 139.773770589
    },
    {
      "corporate_number": "1010401064261",
      "name": "Ｔ＆Ｄアセットマネジメント株式会社",
      "address": "東京都港区芝５丁目３６番７号",
      "prefecture": "東京都港区芝５丁目３６番７号",
      "certification": [
        {
          "certification_name": "次世代育成支援対策推進法に基づく「くるみん」認定",
          "certified_date": ""
        },
        {
          "certification_name": "次世代育成支援対策推進法に基づく「プラチナくるみん」特例認定",
          "certified_date": ""
        }
      ],
      "lat": 35.647133,
      "lng": 139.746672
    },
    {
      "corporate_number": "1010401069161",
      "name": "株式会社ツムラ",
      "address": "東京都港区赤坂２丁目１７番１１号",
      "prefecture": "東京都港区赤坂２丁目１７番１１号",
      "certification": [
        {
          "certification_name": "えるぼし－認定",
          "certified_date": ""
        },
        {
          "certification_name": "次世代育成支援対策推進法に基づく「くるみん」認定",
          "certified_date": ""
        },
        {
          "certification_name": "次世代育成支援対策推進法に基づく「プラチナくるみん」特例認定",
          "certified_date": ""
        },
        {
          "certification_name": "障害者雇用優良事業所の大臣表彰－表彰",
          "certified_date": ""
        }
      ],
      "lat": 35.671044,
      "lng": 139.74023
    },
    {
      "corporate_number": "1010401069401",
      "name": "株式会社ワーク・ライフバランス",
      "address": "東京都港区芝５丁目３２番１２号",
      "prefecture": "東京都港区芝５丁目３２番１２号",
      "certification": [
        {
          "certification_name": "えるぼし－認定",
          "certified_date": ""
        },
        {
          "certification_name": "次世代育成支援対策推進法に基づく「くるみん」認定",
          "certified_date": ""
        },
        {
          "certification_name": "次世代育成支援対策推進法に基づく「プラチナくるみん」特例認定",
          "certified_date": ""
        }
      ],
      "lat": 35.647133,
      "lng": 139.746672
    },
    {
      "corporate_number": "1010401073460",
      "name": "株式会社セレス",
      "address": "東京都渋谷区桜丘町１番１号",
      "prefecture": "東京都渋谷区桜丘町１番１号",
      "certification": [
        {
          "certification_name": "えるぼし－認定",
          "certified_date": ""
        }
      ],
      "lat": 35.65735335,
      "lng": 139.701872086
    },
    {
      "corporate_number": "1010401078435",
      "name": "みらい建設工業株式会社",
      "address": "東京都港区芝４丁目６番１２号",
      "prefecture": "東京都港区芝４丁目６番１２号",
      "certification": [
        {
          "certification_name": "次世代育成支援対策推進法に基づく「くるみん」認定",
          "certified_date": ""
        }
      ],
      "lat": 35.648289,
      "lng": 139.750856
    },
    {
      "corporate_number": "1010401081240",
      "name": "株式会社長谷工リフォーム",
      "address": "東京都港区芝２丁目６番１号",
      "prefecture": "東京都港区芝２丁目６番１号",
      "certification": [
        {
          "certification_name": "えるぼし－認定",
          "certified_date": ""
        }
      ],
      "lat": 35.651338,
      "lng": 139.751694
    },
    {
      "corporate_number": "1010401084739",
      "name": "オリックス銀行株式会社",
      "address": "東京都港区芝３丁目２２番８号",
      "prefecture": "東京都港区芝３丁目２２番８号",
      "certification": [
        {
          "certification_name": "えるぼし－認定",
          "certified_date": ""
        }
      ],
      "lat": 35.65233,
      "lng": 139.747302
    },
    {
      "corporate_number": "1010401085687",
      "name": "クレアブ株式会社",
      "address": "東京都港区愛宕２丁目５番１号愛宕グリーンヒルズＭＯＲＩタワー１１階",
      "prefecture": "東京都港区愛宕２丁目５番１号愛宕グリーンヒルズＭＯＲＩタワー１１階",
      "certification": [
        {
          "certification_name": "えるぼし－認定",
          "certified_date": ""
        }
      ],
      "lat": 35.66285,
      "lng": 139.748214
    },
    {
      "corporate_number": "1010401087691",
      "name": "株式会社ＯＮＥ　ＣＯＭＰＡＴＨ",
      "address": "東京都港区芝浦３丁目１９番２６号",
      "prefecture": "東京都港区芝浦３丁目１９番２６号",
      "certification": [
        {
          "certification_name": "えるぼし－認定",
          "certified_date": ""
        },
        {
          "certification_name": "次世代育成支援対策推進法に基づく「くるみん」認定",
          "certified_date": ""
        }
      ],
      "lat": 35.643973,
      "lng": 139.747836
    },
    {
      "corporate_number": "1010401088946",
      "name": "エムスリーキャリア株式会社",
      "address": "東京都港区虎ノ門４丁目１番２８号",
      "prefecture": "東京都港区虎ノ門４丁目１番２８号",
      "certification": [
        {
          "certification_name": "えるぼし－認定",
          "certified_date": ""
        }
      ],
      "lat": 35.664891,
      "lng": 139.744312
    },
    {
      "corporate_number": "1010401091628",
      "name": "株式会社ＬＩＦＵＬＬ",
      "address": "東京都千代田区麹町１丁目４番地４",
      "prefecture": "東京都千代田区麹町１丁目４番地４",
      "certification": [
        {
          "certification_name": "次世代育成支援対策推進法に基づく「くるみん」認定",
          "certified_date": ""
        },
        {
          "certification_name": "健康経営銘柄－認定",
          "certified_date": ""
        }
      ],
      "lat": 35.684447,
      "lng": 139.742919
    },
    {
      "corporate_number": "1010401092221",
      "name": "第一環境株式会社",
      "address": "東京都港区赤坂２丁目２番１２号",
      "prefecture": "東京都港区赤坂２丁目２番１２号",
      "certification": [
        {
          "certification_name": "えるぼし－認定",
          "certified_date": ""
        }
      ],
      "lat": 35.671044,
      "lng": 139.74023
    },
    {
      "corporate_number": "1010401099027",
      "name": "全日本空輸株式会社",
      "address": "東京都港区東新橋１丁目５番２号",
      "prefecture": "東京都港区東新橋１丁目５番２号",
      "certification": [
        {
          "certification_name": "えるぼし－認定",
          "certified_date": ""
        },
        {
          "certification_name": "次世代育成支援対策推進法に基づく「くるみん」認定",
          "certified_date": ""
        },
        {
          "certification_name": "次世代育成支援対策推進法に基づく「プラチナくるみん」特例認定",
          "certified_date": ""
        }
      ],
      "lat": 35.663118,
      "lng": 139.760581
    },
    {
      "corporate_number": "1010401106229",
      "name": "株式会社アトムストーリー",
      "address": "東京都港区南青山３丁目１番３６号青山丸竹ビル６Ｆ",
      "prefecture": "東京都港区南青山３丁目１番３６号青山丸竹ビル６Ｆ",
      "certification": [
        {
          "certification_name": "えるぼし－認定",
          "certified_date": ""
        }
      ],
      "lat": 35.666489,
      "lng": 139.715334
    },
    {
      "corporate_number": "1010401106583",
      "name": "アメリカンホーム医療・損害保険株式会社",
      "address": "東京都港区麻布台１丁目３番１号",
      "prefecture": "東京都港区麻布台１丁目３番１号",
      "certification": [
        {
          "certification_name": "えるぼし－認定",
          "certified_date": ""
        }
      ],
      "lat": 35.661402,
      "lng": 139.74022300000001
    },
    {
      "corporate_number": "1010401108019",
      "name": "トラスティーパートナーズ株式会社",
      "address": "東京都渋谷区恵比寿４丁目３番１４号",
      "prefecture": "東京都渋谷区恵比寿４丁目３番１４号",
      "certification": [
        {
          "certification_name": "次世代育成支援対策推進法に基づく「くるみん」認定",
          "certified_date": ""
        }
      ],
      "lat": 35.645795283,
      "lng": 139.711207428
    },
    {
      "corporate_number": "1010401113101",
      "name": "ｅｌＤｅｓｉｇｎ株式会社",
      "address": "東京都港区六本木１丁目９番１０号",
      "prefecture": "東京都港区六本木１丁目９番１０号",
      "certification": [
        {
          "certification_name": "えるぼし－認定",
          "certified_date": ""
        }
      ],
      "lat": 35.665061,
      "lng": 139.740792
    },
    {
      "corporate_number": "1010401116252",
      "name": "アイ・インテグレーション株式会社",
      "address": "東京都港区南青山２丁目１１番１３号南青山ビル６Ｆ",
      "prefecture": "東京都港区南青山２丁目１１番１３号南青山ビル６Ｆ",
      "certification": [
        {
          "certification_name": "えるぼし－認定",
          "certified_date": ""
        },
        {
          "certification_name": "次世代育成支援対策推進法に基づく「くるみん」認定",
          "certified_date": ""
        }
      ],
      "lat": 35.667311,
      "lng": 139.721885
    },
    {
      "corporate_number": "1010401120741",
      "name": "コスモエネルギーホールディングス株式会社",
      "address": "東京都中央区京橋１丁目７番１号",
      "prefecture": "東京都中央区京橋１丁目７番１号",
      "certification": [
        {
          "certification_name": "なでしこ銘柄－認定",
          "certified_date": ""
        }
      ],
      "lat": 35.678706553,
      "lng": 139.771572273
    },
    {
      "corporate_number": "1010401122424",
      "name": "株式会社電通オペレーション・パートナーズ",
      "address": "東京都港区東新橋１丁目８番１号",
      "prefecture": "東京都港区東新橋１丁目８番１号",
      "certification": [
        {
          "certification_name": "えるぼし－認定",
          "certified_date": ""
        }
      ],
      "lat": 35.663118,
      "lng": 139.760581
    },
    {
      "corporate_number": "1010401128000",
      "name": "大東建託リーシング株式会社",
      "address": "東京都港区港南２丁目１６番１号",
      "prefecture": "東京都港区港南２丁目１６番１号",
      "certification": [
        {
          "certification_name": "えるぼし－認定",
          "certified_date": ""
        },
        {
          "certification_name": "次世代育成支援対策推進法に基づく「くるみん」認定",
          "certified_date": ""
        }
      ],
      "lat": 35.630932,
      "lng": 139.73970300000002
    },
    {
      "corporate_number": "1010401129592",
      "name": "サイオステクノロジー株式会社",
      "address": "東京都港区南麻布２丁目１２番３号サイオスビル",
      "prefecture": "東京都港区南麻布２丁目１２番３号サイオスビル",
      "certification": [
        {
          "certification_name": "えるぼし－認定",
          "certified_date": ""
        }
      ],
      "lat": 35.648408,
      "lng": 139.735246
    },
    {
      "corporate_number": "1010401169408",
      "name": "株式会社アジャイルエナジーＸ",
      "address": "東京都港区港南２丁目１６番５号",
      "prefecture": "東京都港区港南２丁目１６番５号",
      "certification": [
        {
          "certification_name": "令和４年度環境スタートアップ大賞",
          "certified_date": "2023-03-15"
        }
      ],
      "lat": 35.630932,
      "lng": 139.73970300000002
    },
    {
      "corporate_number": "1010401170497",
      "name": "株式会社ディーエイチシー",
      "address": "東京都港区芝５丁目３４番２号",
      "prefecture": "東京都港区芝５丁目３４番２号",
      "certification": [
        {
          "certification_name": "えるぼし－認定",
          "certified_date": ""
        }
      ],
      "lat": 35.647133,
      "lng": 139.746672
    },
    {
      "corporate_number": "1010405009403",
      "name": "一般財団法人日本情報経済社会推進協会",
      "address": "東京都港区六本木１丁目９番９号六本木ファーストビル内",
      "prefecture": "東京都港区六本木１丁目９番９号六本木ファーストビル内",
      "certification": [
        {
          "certification_name": "次世代育成支援対策推進法に基づく「くるみん」認定",
          "certified_date": ""
        }
      ],
      "lat": 35.665061,
      "lng": 139.740792
    },
    {
      "corporate_number": "1010405009411",
      "name": "公益財団法人原子力安全研究協会",
      "address": "東京都港区新橋５丁目１８番７号",
      "prefecture": "東京都港区新橋５丁目１８番７号",
      "certification": [
        {
          "certification_name": "えるぼし－認定",
          "certified_date": ""
        }
      ],
      "lat": 35.663089,
      "lng": 139.755002
    },
    {
      "corporate_number": "1010405009898",
      "name": "一般社団法人ＲＣＦ",
      "address": "東京都新宿区西新宿１丁目２５－１新宿センタービル４９階",
      "prefecture": "東京都新宿区西新宿１丁目２５－１新宿センタービル４９階",
      "certification": [
        {
          "certification_name": "次世代育成支援対策推進法に基づく「くるみん」認定",
          "certified_date": ""
        }
      ],
      "lat": 35.691787489,
      "lng": 139.696374106
    },
    {
      "corporate_number": "1010405013693",
      "name": "社会保険労務士法人ＨＲビジネスマネジメント",
      "address": "東京都港区芝公園１丁目１番１号住友不動産御成門タワー７階",
      "prefecture": "東京都港区芝公園１丁目１番１号住友不動産御成門タワー７階",
      "certification": [
        {
          "certification_name": "えるぼし－認定",
          "certified_date": ""
        }
      ],
      "lat": 35.65893,
      "lng": 139.751417
    },
    {
      "corporate_number": "1010501002253",
      "name": "株式会社オンダ",
      "address": "東京都台東区浅草橋１丁目１８番１０号",
      "prefecture": "東京都台東区浅草橋１丁目１８番１０号",
      "certification": [
        {
          "certification_name": "次世代育成支援対策推進法に基づく「くるみん」認定",
          "certified_date": ""
        }
      ],
      "lat": 35.697614392,
      "lng": 139.786241731
    },
    {
      "corporate_number": "1010501003400",
      "name": "株式会社協和",
      "address": "東京都台東区東上野２丁目２１番１３号",
      "prefecture": "東京都台東区東上野２丁目２１番１３号",
      "certification": [
        {
          "certification_name": "次世代育成支援対策推進法に基づく「くるみん」認定",
          "certified_date": ""
        }
      ],
      "lat": 35.709976894,
      "lng": 139.778468608
    },
    {
      "corporate_number": "1010501035022",
      "name": "株式会社地域ブランディング研究所",
      "address": "東京都台東区雷門２丁目２０番３号",
      "prefecture": "東京都台東区雷門２丁目２０番３号",
      "certification": [
        {
          "certification_name": "次世代育成支援対策推進法に基づく「くるみん」認定",
          "certified_date": ""
        }
      ],
      "lat": 35.710086314,
      "lng": 139.797425394
    },
    {
      "corporate_number": "1010505001648",
      "name": "特定非営利活動法人気象キャスターネットワーク",
      "address": "東京都台東区上野桜木１丁目１４番２１号高遠レジデンス上野桜木２０２号室",
      "prefecture": "東京都台東区上野桜木１丁目１４番２１号高遠レジデンス上野桜木２０２号室",
      "certification": [
        {
          "certification_name": "国土交通大臣表彰",
          "certified_date": "2020-06-01"
        }
      ],
      "lat": 35.722423733,
      "lng": 139.774076319
    },
    {
      "corporate_number": "1010601016863",
      "name": "ライオン株式会社",
      "address": "東京都台東区蔵前１丁目３番２８号",
      "prefecture": "東京都台東区蔵前１丁目３番２８号",
      "certification": [
        {
          "certification_name": "無期転換制度（Ａ：無期労働契約への転換、Ｂ：限定正社員（多様な正社員）への転換）",
          "certified_date": ""
        },
        {
          "certification_name": "次世代育成支援対策推進法に基づく「くるみん」認定",
          "certified_date": ""
        },
        {
          "certification_name": "次世代育成支援対策推進法に基づく「プラチナくるみん」特例認定",
          "certified_date": ""
        },
        {
          "certification_name": "消費者志向経営優良事例表彰",
          "certified_date": "2022-03-15"
        },
        {
          "certification_name": "知財功労賞（知的財産権制度活用優良企業等表彰）",
          "certified_date": "2019-04-18"
        },
        {
          "certification_name": "グリーン物流パートナーシップ優良事業者表彰",
          "certified_date": "2018-12-11"
        }
      ],
      "lat": 35.701406742,
      "lng": 139.79062785
    },
    {
      "corporate_number": "1010601020246",
      "name": "株式会社ＡＩＴ",
      "address": "東京都江東区佐賀１丁目５番６号",
      "prefecture": "東京都江東区佐賀１丁目５番６号",
      "certification": [
        {
          "certification_name": "えるぼし－認定",
          "certified_date": ""
        }
      ],
      "lat": 35.676191494,
      "lng": 139.790053147
    },
    {
      "corporate_number": "1010601021483",
      "name": "日本電技株式会社",
      "address": "東京都墨田区両国２丁目１０番１４号",
      "prefecture": "東京都墨田区両国２丁目１０番１４号",
      "certification": [
        {
          "certification_name": "次世代育成支援対策推進法に基づく「くるみん」認定",
          "certified_date": ""
        }
      ],
      "lat": 35.694167783,
      "lng": 139.79270675
    },
    {
      "corporate_number": "1010601022176",
      "name": "株式会社大和総研",
      "address": "東京都江東区冬木１５番６号",
      "prefecture": "東京都江東区冬木１５番６号",
      "certification": [
        {
          "certification_name": "えるぼし－認定",
          "certified_date": ""
        },
        {
          "certification_name": "次世代育成支援対策推進法に基づく「くるみん」認定",
          "certified_date": ""
        },
        {
          "certification_name": "次世代育成支援対策推進法に基づく「プラチナくるみん」特例認定",
          "certified_date": ""
        }
      ],
      "lat": 35.675115467,
      "lng": 139.800038061
    },
    {
      "corporate_number": "1010601027646",
      "name": "富士ソフトサービスビューロ株式会社",
      "address": "東京都墨田区江東橋２丁目１９番７号",
      "prefecture": "東京都墨田区江東橋２丁目１９番７号",
      "certification": [
        {
          "certification_name": "えるぼし－認定",
          "certified_date": ""
        },
        {
          "certification_name": "次世代育成支援対策推進法に基づく「くるみん」認定",
          "certified_date": ""
        }
      ],
      "lat": 35.696284389,
      "lng": 139.811942689
    },
    {
      "corporate_number": "1010601030781",
      "name": "アルフレッサメディカルサービス株式会社",
      "address": "東京都千代田区九段南２丁目３番１４号靖国九段南ビル９Ｆ",
      "prefecture": "東京都千代田区九段南２丁目３番１４号靖国九段南ビル９Ｆ",
      "certification": [
        {
          "certification_name": "えるぼし－認定",
          "certified_date": ""
        }
      ],
      "lat": 35.69345105,
      "lng": 139.745189842
    },
    {
      "corporate_number": "1010601031771",
      "name": "日本鉄塔工業株式会社",
      "address": "東京都江東区新砂１丁目６番２７号",
      "prefecture": "東京都江東区新砂１丁目６番２７号",
      "certification": [
        {
          "certification_name": "えるぼし－認定",
          "certified_date": ""
        }
      ],
      "lat": 35.667751819,
      "lng": 139.822234678
    },
    {
      "corporate_number": "1010601032497",
      "name": "株式会社イオン銀行",
      "address": "東京都千代田区神田錦町３丁目２２番地",
      "prefecture": "東京都千代田区神田錦町３丁目２２番地",
      "certification": [
        {
          "certification_name": "えるぼし－認定",
          "certified_date": ""
        },
        {
          "certification_name": "次世代育成支援対策推進法に基づく「くるみん」認定",
          "certified_date": ""
        },
        {
          "certification_name": "次世代育成支援対策推進法に基づく「プラチナくるみん」特例認定",
          "certified_date": ""
        }
      ],
      "lat": 35.692324,
      "lng": 139.760722
    },
    {
      "corporate_number": "1010601035005",
      "name": "株式会社八州",
      "address": "東京都江東区木場５丁目８番４０号",
      "prefecture": "東京都江東区木場５丁目８番４０号",
      "certification": [
        {
          "certification_name": "次世代育成支援対策推進法に基づく「くるみん」認定",
          "certified_date": ""
        },
        {
          "certification_name": "国土地理院長表彰（優良業務）",
          "certified_date": "2023-07-19"
        },
        {
          "certification_name": "国土地理院中部地方測量部長表彰（優良業務）",
          "certified_date": "2021-07-19"
        },
        {
          "certification_name": "災害対策関係功労者感謝状贈呈",
          "certified_date": "2019-03-04"
        }
      ],
      "lat": 35.670764925,
      "lng": 139.808788811
    },
    {
      "corporate_number": "1010601035335",
      "name": "日本メジフィジックス株式会社",
      "address": "東京都江東区新砂３丁目４番１０号",
      "prefecture": "東京都江東区新砂３丁目４番１０号",
      "certification": [
        {
          "certification_name": "次世代育成支援対策推進法に基づく「くるみん」認定",
          "certified_date": ""
        }
      ],
      "lat": 35.664144272,
      "lng": 139.836846886
    },
    {
      "corporate_number": "1010701004248",
      "name": "株式会社シー・エス・エス",
      "address": "東京都品川区西五反田２丁目１２番３号",
      "prefecture": "東京都品川区西五反田２丁目１２番３号",
      "certification": [
        {
          "certification_name": "次世代育成支援対策推進法に基づく「くるみん」認定",
          "certified_date": ""
        }
      ],
      "lat": 35.62703393,
      "lng": 139.7199265
    },
    {
      "corporate_number": "1010701004891",
      "name": "株式会社ＪＡＬサンライト",
      "address": "東京都品川区東品川２丁目４番１１号",
      "prefecture": "東京都品川区東品川２丁目４番１１号",
      "certification": [
        {
          "certification_name": "えるぼし－認定",
          "certified_date": ""
        }
      ],
      "lat": 35.62021617,
      "lng": 139.7509168
    },
    {
      "corporate_number": "1010701005270",
      "name": "セメダイン株式会社",
      "address": "東京都品川区大崎１丁目１１番２号ゲートシティ大崎イーストタワー",
      "prefecture": "東京都品川区大崎１丁目１１番２号ゲートシティ大崎イーストタワー",
      "certification": [
        {
          "certification_name": "次世代育成支援対策推進法に基づく「くるみん」認定",
          "certified_date": ""
        }
      ],
      "lat": 35.61986788,
      "lng": 139.731301
    },
    {
      "corporate_number": "1010701005345",
      "name": "相互住宅株式会社",
      "address": "東京都品川区大崎１丁目２番２号",
      "prefecture": "東京都品川区大崎１丁目２番２号",
      "certification": [
        {
          "certification_name": "えるぼし－認定",
          "certified_date": ""
        },
        {
          "certification_name": "次世代育成支援対策推進法に基づく「くるみん」認定",
          "certified_date": ""
        }
      ],
      "lat": 35.62180486,
      "lng": 139.728372
    },
    {
      "corporate_number": "1010701007309",
      "name": "ニッケイ株式会社",
      "address": "東京都港区三田３丁目５番２７号",
      "prefecture": "東京都港区三田３丁目５番２７号",
      "certification": [
        {
          "certification_name": "えるぼし－認定",
          "certified_date": ""
        }
      ],
      "lat": 35.644006,
      "lng": 139.742887
    },
    {
      "corporate_number": "1010701008901",
      "name": "株式会社フォーカスシステムズ",
      "address": "東京都品川区東五反田２丁目７番８号",
      "prefecture": "東京都品川区東五反田２丁目７番８号",
      "certification": [
        {
          "certification_name": "えるぼし－認定",
          "certified_date": ""
        },
        {
          "certification_name": "次世代育成支援対策推進法に基づく「くるみん」認定",
          "certified_date": ""
        },
        {
          "certification_name": "次世代育成支援対策推進法に基づく「プラチナくるみん」特例認定",
          "certified_date": ""
        }
      ],
      "lat": 35.62494258,
      "lng": 139.7266629
    },
    {
      "corporate_number": "1010701012473",
      "name": "株式会社日本港湾コンサルタント",
      "address": "東京都品川区大崎１丁目１１番２号",
      "prefecture": "東京都品川区大崎１丁目１１番２号",
      "certification": [
        {
          "certification_name": "えるぼし－認定",
          "certified_date": ""
        }
      ],
      "lat": 35.61986788,
      "lng": 139.731301
    },
    {
      "corporate_number": "1010701016549",
      "name": "三菱総研ＤＣＳ株式会社",
      "address": "東京都港区三田３丁目５番１９号",
      "prefecture": "東京都港区三田３丁目５番１９号",
      "certification": [
        {
          "certification_name": "次世代育成支援対策推進法に基づく「くるみん」認定",
          "certified_date": ""
        },
        {
          "certification_name": "次世代育成支援対策推進法に基づく「プラチナくるみん」特例認定",
          "certified_date": ""
        },
        {
          "certification_name": "えるぼし－認定",
          "certified_date": ""
        }
      ],
      "lat": 35.644006,
      "lng": 139.742887
    },
    {
      "corporate_number": "1010701017860",
      "name": "株式会社ファインディックス",
      "address": "東京都品川区東五反田３丁目１番６号",
      "prefecture": "東京都品川区東五反田３丁目１番６号",
      "certification": [
        {
          "certification_name": "次世代育成支援対策推進法に基づく「くるみん」認定",
          "certified_date": ""
        }
      ],
      "lat": 35.63103136,
      "lng": 139.7296775
    },
    {
      "corporate_number": "1010701019700",
      "name": "ＵＴエイム株式会社",
      "address": "東京都品川区東五反田１丁目１１番１５号",
      "prefecture": "東京都品川区東五反田１丁目１１番１５号",
      "certification": [
        {
          "certification_name": "グッドキャリア企業アワード（大賞（厚生労働大臣表彰））",
          "certified_date": ""
        },
        {
          "certification_name": "グッドキャリア企業アワード－表彰（大賞（厚生労働大臣表彰））",
          "certified_date": ""
        },
        {
          "certification_name": "地域未来牽引企業",
          "certified_date": "2020-10-13"
        }
      ],
      "lat": 35.62757512,
      "lng": 139.7252139
    },
    {
      "corporate_number": "1010701022159",
      "name": "株式会社ガイアックス",
      "address": "東京都千代田区平河町２丁目５番３号",
      "prefecture": "東京都千代田区平河町２丁目５番３号",
      "certification": [
        {
          "certification_name": "えるぼし－認定",
          "certified_date": ""
        },
        {
          "certification_name": "次世代育成支援対策推進法に基づく「くるみん」認定",
          "certified_date": ""
        }
      ],
      "lat": 35.680376,
      "lng": 139.740097
    },
    {
      "corporate_number": "1010701024774",
      "name": "三井倉庫サプライチェーンソリューション株式会社",
      "address": "東京都中央区日本橋箱崎町１９番２１号",
      "prefecture": "東京都中央区日本橋箱崎町１９番２１号",
      "certification": [
        {
          "certification_name": "次世代育成支援対策推進法に基づく「くるみん」認定",
          "certified_date": ""
        },
        {
          "certification_name": "えるぼし－認定",
          "certified_date": ""
        },
        {
          "certification_name": "次世代育成支援対策推進法に基づく「プラチナくるみん」特例認定",
          "certified_date": ""
        }
      ],
      "lat": 35.679577804,
      "lng": 139.786361901
    },
    {
      "corporate_number": "1010701025541",
      "name": "株式会社日本アクセス",
      "address": "東京都品川区西品川１丁目１番１号",
      "prefecture": "東京都品川区西品川１丁目１番１号",
      "certification": [
        {
          "certification_name": "令和３年度食品ロス削減推進大賞",
          "certified_date": "2021-02-22"
        }
      ],
      "lat": 35.61504971,
      "lng": 139.7310026
    },
    {
      "corporate_number": "1010701029988",
      "name": "アディッシュ株式会社",
      "address": "東京都品川区西五反田１丁目２１番８号",
      "prefecture": "東京都品川区西五反田１丁目２１番８号",
      "certification": [
        {
          "certification_name": "次世代育成支援対策推進法に基づく「くるみん」認定",
          "certified_date": ""
        }
      ],
      "lat": 35.62293497,
      "lng": 139.7232033
    },
    {
      "corporate_number": "1010801001748",
      "name": "株式会社荏原製作所",
      "address": "東京都大田区羽田旭町１１番１号",
      "prefecture": "東京都大田区羽田旭町１１番１号",
      "certification": [
        {
          "certification_name": "えるぼし－認定",
          "certified_date": ""
        },
        {
          "certification_name": "令和４年度東北農政局所管農業農村整備事業等優良工事等の受注者等の表彰",
          "certified_date": "2023-01-27"
        },
        {
          "certification_name": "令和３年度近畿農政局所管農業農村整備事業等優良工事等の受注者の表彰",
          "certified_date": "2021-12-22"
        }
      ],
      "lat": 35.551784386,
      "lng": 139.752540869
    },
    {
      "corporate_number": "1010801004404",
      "name": "株式会社三光堂製本",
      "address": "東京都大田区仲六郷１丁目４０番３号",
      "prefecture": "東京都大田区仲六郷１丁目４０番３号",
      "certification": [
        {
          "certification_name": "次世代育成支援対策推進法に基づく「くるみん」認定",
          "certified_date": ""
        }
      ],
      "lat": 35.553237769,
      "lng": 139.714315728
    },
    {
      "corporate_number": "1010801005311",
      "name": "株式会社シンシ",
      "address": "東京都大田区下丸子２丁目１７番４号",
      "prefecture": "東京都大田区下丸子２丁目１７番４号",
      "certification": [
        {
          "certification_name": "次世代育成支援対策推進法に基づく「くるみん」認定",
          "certified_date": ""
        }
      ],
      "lat": 35.56580436400001,
      "lng": 139.687426483
    },
    {
      "corporate_number": "1010801006342",
      "name": "ソニー損害保険株式会社",
      "address": "東京都大田区蒲田５丁目３７番１号",
      "prefecture": "東京都大田区蒲田５丁目３７番１号",
      "certification": [
        {
          "certification_name": "次世代育成支援対策推進法に基づく「くるみん」認定",
          "certified_date": ""
        }
      ],
      "lat": 35.561768,
      "lng": 139.718337
    },
    {
      "corporate_number": "1010801022216",
      "name": "東電物流株式会社",
      "address": "東京都品川区東品川４丁目１２番６号",
      "prefecture": "東京都品川区東品川４丁目１２番６号",
      "certification": [
        {
          "certification_name": "えるぼし－認定",
          "certified_date": ""
        }
      ],
      "lat": 35.61136011,
      "lng": 139.7484831
    },
    {
      "corporate_number": "1010801024625",
      "name": "ビットバンク株式会社",
      "address": "東京都中央区八重洲２丁目２番１号東京ミッドタウン八重洲八重洲セントラルタワー１０Ｆ",
      "prefecture": "東京都中央区八重洲２丁目２番１号東京ミッドタウン八重洲八重洲セントラルタワー１０Ｆ",
      "certification": [
        {
          "certification_name": "次世代育成支援対策推進法に基づく「くるみん」認定",
          "certified_date": ""
        }
      ],
      "lat": 35.679696439,
      "lng": 139.769163178
    },
    {
      "corporate_number": "1010901008288",
      "name": "東神開発株式会社",
      "address": "東京都世田谷区玉川３丁目１７番１号",
      "prefecture": "東京都世田谷区玉川３丁目１７番１号",
      "certification": [
        {
          "certification_name": "次世代育成支援対策推進法に基づく「くるみん」認定",
          "certified_date": ""
        }
      ],
      "lat": 35.613520356,
      "lng": 139.626986417
    },
    {
      "corporate_number": "1010901011705",
      "name": "三菱電機システムサービス株式会社",
      "address": "東京都世田谷区太子堂４丁目１番１号",
      "prefecture": "東京都世田谷区太子堂４丁目１番１号",
      "certification": [
        {
          "certification_name": "次世代育成支援対策推進法に基づく「くるみん」認定",
          "certified_date": ""
        }
      ],
      "lat": 35.643544747,
      "lng": 139.669837308
    },
    {
      "corporate_number": "1010901015937",
      "name": "アールエヌティーホテルズ株式会社",
      "address": "東京都世田谷区桜新町１丁目３４番６号",
      "prefecture": "東京都世田谷区桜新町１丁目３４番６号",
      "certification": [
        {
          "certification_name": "次世代育成支援対策推進法に基づく「くるみん」認定",
          "certified_date": ""
        }
      ],
      "lat": 35.626349994,
      "lng": 139.642287383
    },
    {
      "corporate_number": "1010901022859",
      "name": "株式会社レッカスグルーヴ",
      "address": "東京都世田谷区池尻３丁目２２番４号池尻大橋ビル３階",
      "prefecture": "東京都世田谷区池尻３丁目２２番４号池尻大橋ビル３階",
      "certification": [
        {
          "certification_name": "えるぼし－認定",
          "certified_date": ""
        }
      ],
      "lat": 35.648576972,
      "lng": 139.680176822
    },
    {
      "corporate_number": "1010901026918",
      "name": "株式会社セック",
      "address": "東京都世田谷区用賀４丁目１０番１号",
      "prefecture": "東京都世田谷区用賀４丁目１０番１号",
      "certification": [
        {
          "certification_name": "次世代育成支援対策推進法に基づく「くるみん」認定",
          "certified_date": ""
        }
      ],
      "lat": 35.626691675,
      "lng": 139.633985
    },
    {
      "corporate_number": "1010905002279",
      "name": "公益財団法人せたがや文化財団",
      "address": "東京都世田谷区太子堂４丁目１番１号",
      "prefecture": "東京都世田谷区太子堂４丁目１番１号",
      "certification": [
        {
          "certification_name": "えるぼし－認定",
          "certified_date": ""
        }
      ],
      "lat": 35.643544747,
      "lng": 139.669837308
    },
    {
      "corporate_number": "1011001005060",
      "name": "小田急電鉄株式会社",
      "address": "東京都渋谷区代々木２丁目２８番１２号",
      "prefecture": "東京都渋谷区代々木２丁目２８番１２号",
      "certification": [
        {
          "certification_name": "次世代育成支援対策推進法に基づく「くるみん」認定",
          "certified_date": ""
        },
        {
          "certification_name": "次世代育成支援対策推進法に基づく「プラチナくるみん」特例認定",
          "certified_date": ""
        }
      ],
      "lat": 35.684824908,
      "lng": 139.699890353
    },
    {
      "corporate_number": "1011001007998",
      "name": "株式会社プライムインターナショナル",
      "address": "東京都品川区東五反田１丁目１０番４号エムアイビル４階",
      "prefecture": "東京都品川区東五反田１丁目１０番４号エムアイビル４階",
      "certification": [
        {
          "certification_name": "えるぼし－認定",
          "certified_date": ""
        }
      ],
      "lat": 35.62775715,
      "lng": 139.7261057
    },
    {
      "corporate_number": "1011001014953",
      "name": "テスコム電機株式会社",
      "address": "東京都千代田区神田駿河台４丁目６番",
      "prefecture": "東京都千代田区神田駿河台４丁目６番",
      "certification": [
        {
          "certification_name": "次世代育成支援対策推進法に基づく「くるみん」認定",
          "certified_date": ""
        }
      ],
      "lat": 35.698594,
      "lng": 139.765849
    },
    {
      "corporate_number": "1011001016231",
      "name": "株式会社アトレ",
      "address": "東京都渋谷区恵比寿４丁目１番１８号",
      "prefecture": "東京都渋谷区恵比寿４丁目１番１８号",
      "certification": [
        {
          "certification_name": "えるぼし－認定",
          "certified_date": ""
        }
      ],
      "lat": 35.645789061,
      "lng": 139.711156931
    },
    {
      "corporate_number": "1011001017502",
      "name": "株式会社ニッポンインダストリーズ",
      "address": "東京都渋谷区代々木３丁目２８番６－１Ａ号",
      "prefecture": "東京都渋谷区代々木３丁目２８番６－１Ａ号",
      "certification": [
        {
          "certification_name": "えるぼし－認定",
          "certified_date": ""
        }
      ],
      "lat": 35.683222,
      "lng": 139.693911
    },
    {
      "corporate_number": "1011001017717",
      "name": "ＮＳＷ株式会社",
      "address": "東京都渋谷区桜丘町３１番１１号",
      "prefecture": "東京都渋谷区桜丘町３１番１１号",
      "certification": [
        {
          "certification_name": "次世代育成支援対策推進法に基づく「くるみん」認定",
          "certified_date": ""
        }
      ],
      "lat": 35.6559168,
      "lng": 139.697543272
    },
    {
      "corporate_number": "1011001023797",
      "name": "株式会社有電社",
      "address": "東京都渋谷区千駄ヶ谷１丁目５番６号",
      "prefecture": "東京都渋谷区千駄ヶ谷１丁目５番６号",
      "certification": [
        {
          "certification_name": "えるぼし－認定",
          "certified_date": ""
        }
      ],
      "lat": 35.678241311,
      "lng": 139.709163861
    },
    {
      "corporate_number": "1011001025967",
      "name": "日油株式会社",
      "address": "東京都渋谷区恵比寿４丁目２０番３号",
      "prefecture": "東京都渋谷区恵比寿４丁目２０番３号",
      "certification": [
        {
          "certification_name": "次世代育成支援対策推進法に基づく「くるみん」認定",
          "certified_date": ""
        }
      ],
      "lat": 35.643627417,
      "lng": 139.712707647
    },
    {
      "corporate_number": "1011001027542",
      "name": "株式会社日本介護センター",
      "address": "東京都目黒区青葉台３丁目１番１９号",
      "prefecture": "東京都目黒区青葉台３丁目１番１９号",
      "certification": [
        {
          "certification_name": "次世代育成支援対策推進法に基づく「くるみん」認定",
          "certified_date": ""
        }
      ],
      "lat": 35.653495028,
      "lng": 139.692584497
    },
    {
      "corporate_number": "1011001028441",
      "name": "株式会社ユナイテッドアローズ",
      "address": "東京都渋谷区神宮前３丁目２８番１号",
      "prefecture": "東京都渋谷区神宮前３丁目２８番１号",
      "certification": [
        {
          "certification_name": "次世代育成支援対策推進法に基づく「くるみん」認定",
          "certified_date": ""
        },
        {
          "certification_name": "なでしこ銘柄－認定",
          "certified_date": ""
        }
      ],
      "lat": 35.672144611,
      "lng": 139.709755275
    },