{
  "hojin-infos": [
    {
      "corporate_number": "1480001000545",
      "name": "株式会社キョーエイ",
      "address": "徳島県徳島市川内町加賀須野４６３番地１５",
      "prefecture": "徳島県徳島市川内町加賀須野４６３番地１５",
      "certification": [
        {
          "certification_name": "障害者雇用優良事業所の大臣表彰－表彰",
          "certified_date": ""
        }
      ],
      "lat": 34.123059795,
      "lng": 134.578807137
    },
    {
      "corporate_number": "1480001002715",
      "name": "株式会社高橋ふとん店",
      "address": "徳島県徳島市川内町鶴島１０５番地の３",
      "prefecture": "徳島県徳島市川内町鶴島１０５番地の３",
      "certification": [
        {
          "certification_name": "えるぼし－認定",
          "certified_date": ""
        },
        {
          "certification_name": "次世代育成支援対策推進法に基づく「くるみん」認定",
          "certified_date": ""
        }
      ],
      "lat": 34.098339945,
      "lng": 134.573598303
    },
    {
      "corporate_number": "1480001003812",
      "name": "株式会社フェイス",
      "address": "徳島県徳島市南島田町３丁目２６番地の６",
      "prefecture": "徳島県徳島市南島田町３丁目２６番地の６",
      "certification": [
        {
          "certification_name": "次世代育成支援対策推進法に基づく「くるみん」認定",
          "certified_date": ""
        }
      ],
      "lat": 34.079489,
      "lng": 134.508083
    },
    {
      "corporate_number": "1480001004942",
      "name": "大塚テクノ株式会社",
      "address": "徳島県鳴門市瀬戸町明神字板屋島１２０番１",
      "prefecture": "徳島県鳴門市瀬戸町明神字板屋島１２０番１",
      "certification": [
        {
          "certification_name": "次世代育成支援対策推進法に基づく「くるみん」認定",
          "certified_date": ""
        }
      ],
      "lat": 33.895691101,
      "lng": 134.580323144
    },
    {
      "corporate_number": "1480001007549",
      "name": "株式会社ＤＣライン",
      "address": "徳島県三好市池田町ヤマダ４０７番地１",
      "prefecture": "徳島県三好市池田町ヤマダ４０７番地１",
      "certification": [
        {
          "certification_name": "次世代育成支援対策推進法に基づく「くるみん」認定",
          "certified_date": ""
        }
      ],
      "lat": 34.026235,
      "lng": 133.822592
    },
    {
      "corporate_number": "1480001009495",
      "name": "株式会社電脳交通",
      "address": "徳島県徳島市寺島本町西１丁目５番１号",
      "prefecture": "徳島県徳島市寺島本町西１丁目５番１号",
      "certification": [
        {
          "certification_name": "地域未来牽引企業",
          "certified_date": "2020-10-13"
        }
      ],
      "lat": 34.07431,
      "lng": 134.549645
    },
    {
      "corporate_number": "1480005000368",
      "name": "学校法人四国大学",
      "address": "徳島県徳島市応神町古川字戎子野１２３番地１",
      "prefecture": "徳島県徳島市応神町古川字戎子野１２３番地１",
      "certification": [
        {
          "certification_name": "消費者支援功労者表彰",
          "certified_date": "2020-04-28"
        }
      ],
      "lat": 34.102497887000006,
      "lng": 134.553364176
    },
    {
      "corporate_number": "1480005000392",
      "name": "医療法人ひまわり会",
      "address": "徳島県徳島市中洲町１丁目３１番地",
      "prefecture": "徳島県徳島市中洲町１丁目３１番地",
      "certification": [
        {
          "certification_name": "次世代育成支援対策推進法に基づく「くるみん」認定",
          "certified_date": ""
        }
      ],
      "lat": 34.068114,
      "lng": 134.55761
    },
    {
      "corporate_number": "1480005003536",
      "name": "生活協同組合とくしま生協",
      "address": "徳島県板野郡北島町中村字東堤ノ内３０番地３",
      "prefecture": "徳島県板野郡北島町中村字東堤ノ内３０番地３",
      "certification": [
        {
          "certification_name": "次世代育成支援対策推進法に基づく「くるみん」認定",
          "certified_date": ""
        },
        {
          "certification_name": "消費者支援功労者表彰",
          "certified_date": "2019-05-28"
        }
      ],
      "lat": 34.129571598,
      "lng": 134.562881162
    },
    {
      "corporate_number": "2480001000040",
      "name": "株式会社アトム",
      "address": "徳島県徳島市住吉４丁目５番１１号",
      "prefecture": "徳島県徳島市住吉４丁目５番１１号",
      "certification": [
        {
          "certification_name": "次世代育成支援対策推進法に基づく「くるみん」認定",
          "certified_date": ""
        }
      ],
      "lat": 34.079300518,
      "lng": 134.569811583
    },
    {
      "corporate_number": "2480001000189",
      "name": "株式会社池田時計店",
      "address": "徳島県徳島市新町橋１丁目１１番地",
      "prefecture": "徳島県徳島市新町橋１丁目１１番地",
      "certification": [
        {
          "certification_name": "えるぼし－認定",
          "certified_date": ""
        }
      ],
      "lat": 34.071047,
      "lng": 134.547433
    },
    {
      "corporate_number": "2480001000627",
      "name": "株式会社国際",
      "address": "徳島県徳島市中昭和町１丁目９番地",
      "prefecture": "徳島県徳島市中昭和町１丁目９番地",
      "certification": [
        {
          "certification_name": "えるぼし－認定",
          "certified_date": ""
        }
      ],
      "lat": 34.06211,
      "lng": 134.557017
    },
    {
      "corporate_number": "2480001001385",
      "name": "株式会社徳島大正銀行",
      "address": "徳島県徳島市富田浜１丁目４１番地",
      "prefecture": "徳島県徳島市富田浜１丁目４１番地",
      "certification": [
        {
          "certification_name": "えるぼし－認定",
          "certified_date": ""
        },
        {
          "certification_name": "次世代育成支援対策推進法に基づく「くるみん」認定",
          "certified_date": ""
        },
        {
          "certification_name": "次世代育成支援対策推進法に基づく「プラチナくるみん」特例認定",
          "certified_date": ""
        }
      ],
      "lat": 34.067873,
      "lng": 134.551327
    },
    {
      "corporate_number": "2480001005337",
      "name": "株式会社はなおか",
      "address": "徳島県板野郡北島町鯛浜字西ノ須１６２番地９",
      "prefecture": "徳島県板野郡北島町鯛浜字西ノ須１６２番地９",
      "certification": [
        {
          "certification_name": "地域未来牽引企業",
          "certified_date": "2020-10-13"
        }
      ],
      "lat": 34.114726605,
      "lng": 134.545363483
    },
    {
      "corporate_number": "2480001007267",
      "name": "株式会社井上組",
      "address": "徳島県美馬郡つるぎ町半田字西久保３４２番地の３",
      "prefecture": "徳島県美馬郡つるぎ町半田字西久保３４２番地の３",
      "certification": [
        {
          "certification_name": "えるぼし－認定",
          "certified_date": ""
        },
        {
          "certification_name": "次世代育成支援対策推進法に基づく「くるみん」認定",
          "certified_date": ""
        }
      ],
      "lat": 34.024090376,
      "lng": 134.029212692
    },
    {
      "corporate_number": "2480005000318",
      "name": "社会医療法人尽心会",
      "address": "徳島県徳島市八万町寺山２３１番地",
      "prefecture": "徳島県徳島市八万町寺山２３１番地",
      "certification": [
        {
          "certification_name": "次世代育成支援対策推進法に基づく「くるみん」認定",
          "certified_date": ""
        }
      ],
      "lat": 34.040733,
      "lng": 134.518433
    },
    {
      "corporate_number": "2480005002248",
      "name": "社会福祉法人健祥会",
      "address": "徳島県徳島市国府町東高輪字天満３５６番地１",
      "prefecture": "徳島県徳島市国府町東高輪字天満３５６番地１",
      "certification": [
        {
          "certification_name": "えるぼし－認定",
          "certified_date": ""
        },
        {
          "certification_name": "次世代育成支援対策推進法に基づく「くるみん」認定",
          "certified_date": ""
        }
      ],
      "lat": 34.092864,
      "lng": 134.48091
    },
    {
      "corporate_number": "2480005002272",
      "name": "特定非営利活動法人徳島県消費者協会",
      "address": "徳島県徳島市寺島本町西１丁目５番地",
      "prefecture": "徳島県徳島市寺島本町西１丁目５番地",
      "certification": [
        {
          "certification_name": "消費者支援功労者表彰",
          "certified_date": "2011-05-30"
        }
      ],
      "lat": 34.07431,
      "lng": 134.549645
    },
    {
      "corporate_number": "2480005002611",
      "name": "特定非営利活動法人ゼロ・ウェイストアカデミー",
      "address": "徳島県勝浦郡上勝町大字福原字中山９８番地",
      "prefecture": "徳島県勝浦郡上勝町大字福原字中山９８番地",
      "certification": [
        {
          "certification_name": "第６回グッドライフアワード",
          "certified_date": "2018-11-17"
        }
      ],
      "lat": 33.877124041,
      "lng": 134.417445167
    },
    {
      "corporate_number": "3290801005174",
      "name": "オーシャントランス株式会社",
      "address": "徳島県徳島市東沖洲２丁目６６番地２",
      "prefecture": "徳島県徳島市東沖洲２丁目６６番地２",
      "certification": [
        {
          "certification_name": "グリーン物流パートナーシップ優良事業者表彰",
          "certified_date": "2017-12-13"
        }
      ],
      "lat": 34.054166862,
      "lng": 134.596329852
    },
    {
      "corporate_number": "3480001000840",
      "name": "四国電気工業株式会社",
      "address": "徳島県徳島市佐古一番町１８番５号",
      "prefecture": "徳島県徳島市佐古一番町１８番５号",
      "certification": [
        {
          "certification_name": "地域未来牽引企業",
          "certified_date": "2020-10-13"
        }
      ],
      "lat": 34.078985499,
      "lng": 134.540848674
    },
    {
      "corporate_number": "3480001001491",
      "name": "徳島トヨペット株式会社",
      "address": "徳島県徳島市昭和町８丁目７番地",
      "prefecture": "徳島県徳島市昭和町８丁目７番地",
      "certification": [
        {
          "certification_name": "次世代育成支援対策推進法に基づく「くるみん」認定",
          "certified_date": ""
        }
      ],
      "lat": 34.057123,
      "lng": 134.572554
    },
    {
      "corporate_number": "3480001001517",
      "name": "株式会社ときわ",
      "address": "徳島県徳島市下助任町３丁目２０番地２",
      "prefecture": "徳島県徳島市下助任町３丁目２０番地２",
      "certification": [
        {
          "certification_name": "次世代育成支援対策推進法に基づく「くるみん」認定",
          "certified_date": ""
        }
      ],
      "lat": 34.082212,
      "lng": 134.55344
    },
    {
      "corporate_number": "3480001002531",
      "name": "株式会社グローバル・アシスト",
      "address": "徳島県徳島市北常三島町１丁目１０番地１７",
      "prefecture": "徳島県徳島市北常三島町１丁目１０番地１７",
      "certification": [
        {
          "certification_name": "次世代育成支援対策推進法に基づく「くるみん」認定",
          "certified_date": ""
        }
      ],
      "lat": 34.081152,
      "lng": 134.561069
    },
    {
      "corporate_number": "3480001004057",
      "name": "徳島ホテルリゾート株式会社",
      "address": "徳島県徳島市万代町３丁目５番１号",
      "prefecture": "徳島県徳島市万代町３丁目５番１号",
      "certification": [
        {
          "certification_name": "えるぼし－認定",
          "certified_date": ""
        }
      ],
      "lat": 34.065429,
      "lng": 134.561491
    },
    {
      "corporate_number": "3480001006870",
      "name": "株式会社八千代組",
      "address": "徳島県阿南市富岡町内町２１１番地",
      "prefecture": "徳島県阿南市富岡町内町２１１番地",
      "certification": [
        {
          "certification_name": "令和３年度中国四国農政局所管農業農村整備事業等優良工事等の受賞者の表彰",
          "certified_date": "2022-01-31"
        }
      ],
      "lat": 33.921762,
      "lng": 134.659566
    },
    {
      "corporate_number": "3480001007605",
      "name": "株式会社山全",
      "address": "徳島県三好市池田町白地井ノ久保９２９番地２",
      "prefecture": "徳島県三好市池田町白地井ノ久保９２９番地２",
      "certification": [
        {
          "certification_name": "次世代育成支援対策推進法に基づく「くるみん」認定",
          "certified_date": ""
        },
        {
          "certification_name": "地域未来牽引企業",
          "certified_date": "2020-10-13"
        }
      ],
      "lat": 34.026044,
      "lng": 133.80718
    },
    {
      "corporate_number": "3480001008017",
      "name": "株式会社岡部機械工業",
      "address": "徳島県阿南市才見町旭越山２５番地１",
      "prefecture": "徳島県阿南市才見町旭越山２５番地１",
      "certification": [
        {
          "certification_name": "えるぼし－認定",
          "certified_date": ""
        },
        {
          "certification_name": "次世代育成支援対策推進法に基づく「くるみん」認定",
          "certified_date": ""
        },
        {
          "certification_name": "次世代育成支援対策推進法に基づく「プラチナくるみん」特例認定",
          "certified_date": ""
        }
      ],
      "lat": 33.921762,
      "lng": 134.659566
    },
    {
      "corporate_number": "3480001008116",
      "name": "株式会社とくし丸",
      "address": "徳島県徳島市南内町１丁目６５－１リバーフロント南内町３Ｆ",
      "prefecture": "徳島県徳島市南内町１丁目６５－１リバーフロント南内町３Ｆ",
      "certification": [
        {
          "certification_name": "第５回グッドライフアワード",
          "certified_date": "2017-12-09"
        }
      ],
      "lat": 34.068479,
      "lng": 134.552379
    },
    {
      "corporate_number": "3480005000135",
      "name": "医療法人栄寿会",
      "address": "徳島県徳島市名東町１丁目９１番地",
      "prefecture": "徳島県徳島市名東町１丁目９１番地",
      "certification": [
        {
          "certification_name": "次世代育成支援対策推進法に基づく「くるみん」認定",
          "certified_date": ""
        }
      ],
      "lat": 34.063329,
      "lng": 134.503899
    },
    {
      "corporate_number": "3480005002619",
      "name": "特定非営利活動法人アクア・チッタ",
      "address": "徳島県徳島市万代町５丁目７１－４万代中央ふ頭第二倉庫",
      "prefecture": "徳島県徳島市万代町５丁目７１－４万代中央ふ頭第二倉庫",
      "certification": [
        {
          "certification_name": "地域づくり表彰",
          "certified_date": "2023-12-07"
        }
      ],
      "lat": 34.063566,
      "lng": 134.565872
    },
    {
      "corporate_number": "3480005004292",
      "name": "阿南信用金庫",
      "address": "徳島県阿南市富岡町トノ町２８番地１４",
      "prefecture": "徳島県阿南市富岡町トノ町２８番地１４",
      "certification": [
        {
          "certification_name": "えるぼし－認定",
          "certified_date": ""
        },
        {
          "certification_name": "次世代育成支援対策推進法に基づく「くるみん」認定",
          "certified_date": ""
        }
      ],
      "lat": 33.921762,
      "lng": 134.659566
    },
    {
      "corporate_number": "3480005006454",
      "name": "一般社団法人西日本モンゴル交流協会",
      "address": "徳島県阿南市橘町幸野２８番地８",
      "prefecture": "徳島県阿南市橘町幸野２８番地８",
      "certification": [
        {
          "certification_name": "外務大臣表彰",
          "certified_date": "2022-08-10"
        }
      ],
      "lat": 33.878036,
      "lng": 134.649006
    },
    {
      "corporate_number": "3480005006462",
      "name": "一般社団法人Ｍｉｒａｉｃｌｅ",
      "address": "徳島県阿南市富岡町今福寺４９番地１０ミラビル２Ｆ",
      "prefecture": "徳島県阿南市富岡町今福寺４９番地１０ミラビル２Ｆ",
      "certification": [
        {
          "certification_name": "次世代育成支援対策推進法に基づく「くるみん」認定",
          "certified_date": ""
        }
      ],
      "lat": 33.921762,
      "lng": 134.659566
    },
    {
      "corporate_number": "4000020360007",
      "name": "徳島県",
      "address": "徳島県徳島市万代町１丁目１",
      "prefecture": "徳島県徳島市万代町１丁目１",
      "certification": [
        {
          "certification_name": "気象庁長官表彰",
          "certified_date": "2023-06-01"
        }
      ],
      "lat": 34.0661,
      "lng": 134.557923
    },
    {
      "corporate_number": "4480001000492",
      "name": "喜多機械産業株式会社",
      "address": "徳島県徳島市庄町３丁目１６番地",
      "prefecture": "徳島県徳島市庄町３丁目１６番地",
      "certification": [
        {
          "certification_name": "次世代育成支援対策推進法に基づく「くるみん」認定",
          "certified_date": ""
        },
        {
          "certification_name": "次世代育成支援対策推進法に基づく「プラチナくるみん」特例認定",
          "certified_date": ""
        },
        {
          "certification_name": "令和５年度消費者支援功労者表彰",
          "certified_date": "2023-05-29"
        }
      ],
      "lat": 34.075486,
      "lng": 134.510408
    },
    {
      "corporate_number": "4480001002274",
      "name": "株式会社松本コンサルタント",
      "address": "徳島県徳島市東吉野町２丁目２４番地６",
      "prefecture": "徳島県徳島市東吉野町２丁目２４番地６",
      "certification": [
        {
          "certification_name": "次世代育成支援対策推進法に基づく「くるみん」認定",
          "certified_date": ""
        },
        {
          "certification_name": "次世代育成支援対策推進法に基づく「プラチナくるみん」特例認定",
          "certified_date": ""
        }
      ],
      "lat": 34.08643000000001,
      "lng": 134.566221
    },
    {
      "corporate_number": "4480001002679",
      "name": "株式会社品山組",
      "address": "徳島県徳島市応神町東貞方字西川淵２２番地３",
      "prefecture": "徳島県徳島市応神町東貞方字西川淵２２番地３",
      "certification": [
        {
          "certification_name": "令和３年度中国四国農政局所管農業農村整備事業等優良工事等の受賞者の表彰",
          "certified_date": "2022-01-31"
        }
      ],
      "lat": 34.120596537,
      "lng": 134.519046883
    },
    {
      "corporate_number": "4480001008040",
      "name": "株式会社ＧＦ",
      "address": "徳島県阿南市黒津地町山下５番地１",
      "prefecture": "徳島県阿南市黒津地町山下５番地１",
      "certification": [
        {
          "certification_name": "次世代育成支援対策推進法に基づく「くるみん」認定",
          "certified_date": ""
        }
      ],
      "lat": 33.921762,
      "lng": 134.659566
    },
    {
      "corporate_number": "4480001008957",
      "name": "スマイルホールディングス株式会社",
      "address": "徳島県徳島市佐古五番町３番１４号",
      "prefecture": "徳島県徳島市佐古五番町３番１４号",
      "certification": [
        {
          "certification_name": "えるぼし－認定",
          "certified_date": ""
        }
      ],
      "lat": 34.07793178,
      "lng": 134.529936715
    },
    {
      "corporate_number": "5000020363685",
      "name": "那賀町",
      "address": "徳島県那賀郡那賀町和食郷字南川１０４－１",
      "prefecture": "徳島県那賀郡那賀町和食郷字南川１０４－１",
      "certification": [
        {
          "certification_name": "気象庁長官表彰",
          "certified_date": "2019-06-01"
        }
      ],
      "lat": 33.857340183,
      "lng": 134.496703641
    },
    {
      "corporate_number": "5480001000070",
      "name": "株式会社阿波銀行",
      "address": "徳島県徳島市西船場町２丁目２４番地の１",
      "prefecture": "徳島県徳島市西船場町２丁目２４番地の１",
      "certification": [
        {
          "certification_name": "えるぼし－認定",
          "certified_date": ""
        },
        {
          "certification_name": "次世代育成支援対策推進法に基づく「くるみん」認定",
          "certified_date": ""
        },
        {
          "certification_name": "次世代育成支援対策推進法に基づく「プラチナくるみん」特例認定",
          "certified_date": ""
        }
      ],
      "lat": 34.072768,
      "lng": 134.546968
    },
    {
      "corporate_number": "5480001000814",
      "name": "四国建設コンサルタント株式会社",
      "address": "徳島県徳島市応神町応神産業団地３番地１",
      "prefecture": "徳島県徳島市応神町応神産業団地３番地１",
      "certification": [
        {
          "certification_name": "次世代育成支援対策推進法に基づく「くるみん」認定",
          "certified_date": ""
        },
        {
          "certification_name": "次世代育成支援対策推進法に基づく「プラチナくるみん」特例認定",
          "certified_date": ""
        }
      ],
      "lat": 34.123292436,
      "lng": 134.524483696
    },
    {
      "corporate_number": "5480001000839",
      "name": "株式会社ＤＮＰ四国",
      "address": "徳島県徳島市中島田町１丁目１５番地",
      "prefecture": "徳島県徳島市中島田町１丁目１５番地",
      "certification": [
        {
          "certification_name": "次世代育成支援対策推進法に基づく「くるみん」認定",
          "certified_date": ""
        }
      ],
      "lat": 34.081871,
      "lng": 134.515964
    },
    {
      "corporate_number": "5480001001647",
      "name": "西精工株式会社",
      "address": "徳島県徳島市南矢三町１丁目１１番４号",
      "prefecture": "徳島県徳島市南矢三町１丁目１１番４号",
      "certification": [
        {
          "certification_name": "次世代育成支援対策推進法に基づく「くるみん」認定",
          "certified_date": ""
        },
        {
          "certification_name": "次世代育成支援対策推進法に基づく「プラチナくるみん」特例認定",
          "certified_date": ""
        },
        {
          "certification_name": "障害者雇用優良事業所の大臣表彰－表彰",
          "certified_date": ""
        }
      ],
      "lat": 34.080860855,
      "lng": 134.529316502
    },
    {
      "corporate_number": "5480001003313",
      "name": "東邦セールス株式会社",
      "address": "徳島県徳島市応神町吉成字只津３７番地１９",
      "prefecture": "徳島県徳島市応神町吉成字只津３７番地１９",
      "certification": [
        {
          "certification_name": "次世代育成支援対策推進法に基づく「くるみん」認定",
          "certified_date": ""
        }
      ],
      "lat": 34.122799882,
      "lng": 134.53179894400003
    },
    {
      "corporate_number": "5480001003429",
      "name": "株式会社シケン",
      "address": "徳島県小松島市芝生町字西居屋敷５５番地１",
      "prefecture": "徳島県小松島市芝生町字西居屋敷５５番地１",
      "certification": [
        {
          "certification_name": "次世代育成支援対策推進法に基づく「くるみん」認定",
          "certified_date": ""
        },
        {
          "certification_name": "障害者雇用優良事業所の大臣表彰－表彰",
          "certified_date": ""
        }
      ],
      "lat": 33.99718738600001,
      "lng": 134.579578684
    },
    {
      "corporate_number": "5480001003718",
      "name": "アクサス株式会社",
      "address": "徳島県徳島市山城西４丁目２番地",
      "prefecture": "徳島県徳島市山城西４丁目２番地",
      "certification": [
        {
          "certification_name": "地域未来牽引企業",
          "certified_date": "2020-10-13"
        }
      ],
      "lat": 34.049009329,
      "lng": 134.552357887
    },
    {
      "corporate_number": "5480001004666",
      "name": "四国部品株式会社",
      "address": "徳島県阿波市市場町市場字岸ノ下２３２番地１",
      "prefecture": "徳島県阿波市市場町市場字岸ノ下２３２番地１",
      "certification": [
        {
          "certification_name": "障害者雇用優良事業所の大臣表彰－表彰",
          "certified_date": ""
        }
      ],
      "lat": 34.089026755,
      "lng": 134.276307912
    },
    {
      "corporate_number": "5480001005219",
      "name": "株式会社大塚製薬工場",
      "address": "徳島県鳴門市撫養町立岩字芥原１１５番地",
      "prefecture": "徳島県鳴門市撫養町立岩字芥原１１５番地",
      "certification": [
        {
          "certification_name": "次世代育成支援対策推進法に基づく「プラチナくるみん」特例認定",
          "certified_date": ""
        },
        {
          "certification_name": "次世代育成支援対策推進法に基づく「くるみん」認定",
          "certified_date": ""
        }
      ],
      "lat": 34.17259,
      "lng": 134.6088
    },
    {
      "corporate_number": "5480001006794",
      "name": "日亜化学工業株式会社",
      "address": "徳島県阿南市上中町岡４９１番地１００",
      "prefecture": "徳島県阿南市上中町岡４９１番地１００",
      "certification": [
        {
          "certification_name": "知財功労賞（知的財産権制度活用優良企業等表彰）",
          "certified_date": "2018-04-18"
        }
      ],
      "lat": 33.930358,
      "lng": 134.623364
    },
    {
      "corporate_number": "5480002014846",
      "name": "有限会社高木建設",
      "address": "徳島県美馬市美馬町字露口８４－７",
      "prefecture": "徳島県美馬市美馬町字露口８４－７",
      "certification": [
        {
          "certification_name": "えるぼし－認定",
          "certified_date": ""
        }
      ],
      "lat": 34.054236252,
      "lng": 134.029573286
    },
    {
      "corporate_number": "5480005000249",
      "name": "公益財団法人徳島県勤労者福祉ネットワーク",
      "address": "徳島県徳島市昭和町３丁目３５番地１",
      "prefecture": "徳島県徳島市昭和町３丁目３５番地１",
      "certification": [
        {
          "certification_name": "次世代育成支援対策推進法に基づく「くるみん」認定",
          "certified_date": ""
        }
      ],
      "lat": 34.063503,
      "lng": 134.560566
    },
    {
      "corporate_number": "5480005005875",
      "name": "公益財団法人徳島県老人クラブ連合会",
      "address": "徳島県徳島市中昭和町１丁目２番地徳島県立総合福祉センター内",
      "prefecture": "徳島県徳島市中昭和町１丁目２番地徳島県立総合福祉センター内",
      "certification": [
        {
          "certification_name": "消費者支援功労者表彰",
          "certified_date": "2012-05-28"
        }
      ],
      "lat": 34.06211,
      "lng": 134.557017
    },
    {
      "corporate_number": "6480001005283",
      "name": "四国化工機株式会社",
      "address": "徳島県板野郡北島町太郎八須字西ノ川１０番地の１",
      "prefecture": "徳島県板野郡北島町太郎八須字西ノ川１０番地の１",
      "certification": [
        {
          "certification_name": "次世代育成支援対策推進法に基づく「くるみん」認定",
          "certified_date": ""
        }
      ],
      "lat": 34.125594,
      "lng": 134.546985
    },
    {
      "corporate_number": "6480001007296",
      "name": "株式会社北岡組",
      "address": "徳島県美馬市美馬町字妙見６７番地２",
      "prefecture": "徳島県美馬市美馬町字妙見６７番地２",
      "certification": [
        {
          "certification_name": "えるぼし－認定",
          "certified_date": ""
        }
      ],
      "lat": 34.049026592,
      "lng": 134.056068807
    },
    {
      "corporate_number": "6480002011198",
      "name": "株式会社スマイル",
      "address": "徳島県板野郡北島町高房字八丁野西３９番地２６",
      "prefecture": "徳島県板野郡北島町高房字八丁野西３９番地２６",
      "certification": [
        {
          "certification_name": "次世代育成支援対策推進法に基づく「くるみん」認定",
          "certified_date": ""
        }
      ],
      "lat": 34.132506098,
      "lng": 134.537602385
    },
    {
      "corporate_number": "6480005000339",
      "name": "医療法人青志会",
      "address": "徳島県徳島市昭和町２丁目７１番地",
      "prefecture": "徳島県徳島市昭和町２丁目７１番地",
      "certification": [
        {
          "certification_name": "次世代育成支援対策推進法に基づく「くるみん」認定",
          "certified_date": ""
        }
      ],
      "lat": 34.064223,
      "lng": 134.559152
    },
    {
      "corporate_number": "6480005000413",
      "name": "医療法人むつみホスピタル",
      "address": "徳島県徳島市南矢三町３丁目１１番２３号",
      "prefecture": "徳島県徳島市南矢三町３丁目１１番２３号",
      "certification": [
        {
          "certification_name": "えるぼし－認定",
          "certified_date": ""
        },
        {
          "certification_name": "次世代育成支援対策推進法に基づく「くるみん」認定",
          "certified_date": ""
        }
      ],
      "lat": 34.082924436,
      "lng": 134.519798187
    },
    {
      "corporate_number": "6480005000495",
      "name": "社会福祉法人さわらび会",
      "address": "徳島県徳島市名東町２丁目４５４番地",
      "prefecture": "徳島県徳島市名東町２丁目４５４番地",
      "certification": [
        {
          "certification_name": "次世代育成支援対策推進法に基づく「くるみん」認定",
          "certified_date": ""
        },
        {
          "certification_name": "次世代育成支援対策推進法に基づく「プラチナくるみん」特例認定",
          "certified_date": ""
        }
      ],
      "lat": 34.063731,
      "lng": 134.495115
    },
    {
      "corporate_number": "7480001002404",
      "name": "山菱電機株式会社",
      "address": "徳島県徳島市南矢三町２丁目８番９号",
      "prefecture": "徳島県徳島市南矢三町２丁目８番９号",
      "certification": [
        {
          "certification_name": "次世代育成支援対策推進法に基づく「くるみん」認定",
          "certified_date": ""
        }
      ],
      "lat": 34.081506419,
      "lng": 134.528381727
    },
    {
      "corporate_number": "7480001003658",
      "name": "株式会社ネオビエント",
      "address": "徳島県板野郡北島町太郎八須字西ノ瀬３４番地８",
      "prefecture": "徳島県板野郡北島町太郎八須字西ノ瀬３４番地８",
      "certification": [
        {
          "certification_name": "えるぼし－認定",
          "certified_date": ""
        },
        {
          "certification_name": "次世代育成支援対策推進法に基づく「くるみん」認定",
          "certified_date": ""
        },
        {
          "certification_name": "次世代育成支援対策推進法に基づく「プラチナくるみん」特例認定",
          "certified_date": ""
        }
      ],
      "lat": 34.135506365,
      "lng": 134.563199272
    },
    {
      "corporate_number": "7480001004391",
      "name": "株式会社広沢自動車学校",
      "address": "徳島県徳島市南田宮２丁目４番３号",
      "prefecture": "徳島県徳島市南田宮２丁目４番３号",
      "certification": [
        {
          "certification_name": "消費者志向経営優良事例表彰",
          "certified_date": "2020-01-24"
        }
      ],
      "lat": 34.083747409,
      "lng": 134.54425788
    },
    {
      "corporate_number": "7480005000445",
      "name": "徳島健康生活協同組合",
      "address": "徳島県徳島市下助任町４丁目９番地",
      "prefecture": "徳島県徳島市下助任町４丁目９番地",
      "certification": [
        {
          "certification_name": "次世代育成支援対策推進法に基づく「くるみん」認定",
          "certified_date": ""
        }
      ],
      "lat": 34.083209,
      "lng": 134.550482
    },
    {
      "corporate_number": "7480005004090",
      "name": "特定非営利活動法人美郷宝さがし探検隊",
      "address": "徳島県吉野川市美郷字平９７番地１",
      "prefecture": "徳島県吉野川市美郷字平９７番地１",
      "certification": [
        {
          "certification_name": "地域づくり表彰",
          "certified_date": "2022-12-14"
        }
      ],
      "lat": 34.017267595,
      "lng": 134.261267045
    },
    {
      "corporate_number": "7480005004909",
      "name": "社会福祉法人緑風会",
      "address": "徳島県徳島市国府町東高輪３５２番地３",
      "prefecture": "徳島県徳島市国府町東高輪３５２番地３",
      "certification": [
        {
          "certification_name": "えるぼし－認定",
          "certified_date": ""
        },
        {
          "certification_name": "次世代育成支援対策推進法に基づく「くるみん」認定",
          "certified_date": ""
        }
      ],
      "lat": 34.090242786,
      "lng": 134.482344731
    },
    {
      "corporate_number": "7480005006483",
      "name": "特定非営利活動法人あわ・みらい創生社",
      "address": "徳島県阿波市阿波町四歩一５５番地",
      "prefecture": "徳島県阿波市阿波町四歩一５５番地",
      "certification": [
        {
          "certification_name": "消費者支援功労者表彰",
          "certified_date": "2021-06-30"
        }
      ],
      "lat": 34.090386,
      "lng": 134.248046
    },
    {
      "corporate_number": "8480001001116",
      "name": "株式会社島谷建設",
      "address": "徳島県徳島市富田橋７丁目１７番地",
      "prefecture": "徳島県徳島市富田橋７丁目１７番地",
      "certification": [
        {
          "certification_name": "優秀工事顕彰",
          "certified_date": "2024-07-01"
        },
        {
          "certification_name": "優秀工事技術者顕彰",
          "certified_date": "2024-07-01"
        }
      ],
      "lat": 34.05796,
      "lng": 134.548929
    },
    {
      "corporate_number": "8480001002592",
      "name": "株式会社姫野組",
      "address": "徳島県名西郡石井町藍畑字高畑８２１番地",
      "prefecture": "徳島県名西郡石井町藍畑字高畑８２１番地",
      "certification": [
        {
          "certification_name": "えるぼし－認定",
          "certified_date": ""
        }
      ],
      "lat": 34.091911142,
      "lng": 134.44269536
    },
    {
      "corporate_number": "8480001005629",
      "name": "ＮＴＴ－ＡＴクリエイティブ株式会社",
      "address": "徳島県板野郡松茂町中喜来字福有開拓３０８番地の６",
      "prefecture": "徳島県板野郡松茂町中喜来字福有開拓３０８番地の６",
      "certification": [
        {
          "certification_name": "えるぼし－認定",
          "certified_date": ""
        }
      ],
      "lat": 34.140321083,
      "lng": 134.604225326
    },
    {
      "corporate_number": "8480001009927",
      "name": "株式会社セツロテック",
      "address": "徳島県徳島市蔵本町３丁目１８番地の１５藤井節郎記念医科学センター",
      "prefecture": "徳島県徳島市蔵本町３丁目１８番地の１５藤井節郎記念医科学センター",
      "certification": [
        {
          "certification_name": "地域未来牽引企業",
          "certified_date": "2020-10-13"
        }
      ],
      "lat": 34.078066,
      "lng": 134.516565
    },
    {
      "corporate_number": "9000020369101",
      "name": "みよし広域連合",
      "address": "徳島県三好市池田町マチ２４２９－１",
      "prefecture": "徳島県三好市池田町マチ２４２９－１",
      "certification": [
        {
          "certification_name": "気象庁長官表彰",
          "certified_date": "2023-06-01"
        }
      ],
      "lat": 34.02884,
      "lng": 133.80609
    },
    {
      "corporate_number": "9180005014184",
      "name": "特定非営利活動法人タンザニア眼科支援協会",
      "address": "徳島県徳島市佐古六番町６番地２７藤田眼科内",
      "prefecture": "徳島県徳島市佐古六番町６番地２７藤田眼科内",
      "certification": [
        {
          "certification_name": "外務大臣表彰",
          "certified_date": "2022-08-10"
        }
      ],
      "lat": 34.078323127,
      "lng": 134.528886484
    },
    {
      "corporate_number": "9480001001296",
      "name": "株式会社大一器械",
      "address": "徳島県徳島市川内町平石若宮３４０番地",
      "prefecture": "徳島県徳島市川内町平石若宮３４０番地",
      "certification": [
        {
          "certification_name": "地域未来牽引企業",
          "certified_date": "2020-10-13"
        }
      ],
      "lat": 34.102781,
      "lng": 134.585628
    },
    {
      "corporate_number": "9480001002468",
      "name": "港産業株式会社",
      "address": "徳島県徳島市川内町平石住吉２０９番地１",
      "prefecture": "徳島県徳島市川内町平石住吉２０９番地１",
      "certification": [
        {
          "certification_name": "次世代育成支援対策推進法に基づく「くるみん」認定",
          "certified_date": ""
        }
      ],
      "lat": 34.113331158,
      "lng": 134.587778652
    },
    {
      "corporate_number": "9480001006790",
      "name": "株式会社日誠産業",
      "address": "徳島県阿南市津乃峰町新浜３３番地１０",
      "prefecture": "徳島県阿南市津乃峰町新浜３３番地１０",
      "certification": [
        {
          "certification_name": "消費者支援功労者表彰",
          "certified_date": "2022-05-26"
        }
      ],
      "lat": 33.883786,
      "lng": 134.660228
    },
    {
      "corporate_number": "9480005005995",
      "name": "一般社団法人徳島新聞社",
      "address": "徳島県徳島市中徳島町２丁目５番地２",
      "prefecture": "徳島県徳島市中徳島町２丁目５番地２",
      "certification": [
        {
          "certification_name": "人権擁護功労賞",
          "certified_date": "2022-12-02"
        }
      ],
      "lat": 34.07466,
      "lng": 134.559874
    }
  ]
}